[{"atcoCode": "9100ABDARE", "tiplocCode": "ABDARE", "crsCode": "ABA", "stationName": "Aberdare Rail Station", "lat": "51.71505790608", "long": "-3.44308344608"}, {"atcoCode": "9100ASHYDN", "tiplocCode": "ASHYDN", "crsCode": "ASD", "stationName": "Ashley Down", "lat": "51.47875", "long": "-2.5767"}, {"atcoCode": "9100SWNACFC", "tiplocCode": "SWNACFC", "crsCode": "CFC", "stationName": "Corfe Castle", "lat": "50.6383", "long": "-2.0551"}, {"atcoCode": "9100BEULYPK", "tiplocCode": "BEULYPK", "crsCode": "BPA", "stationName": "Beaulieu Park", "lat": "51.758057", "long": "0.51833570"}, {"atcoCode": "9100ELINTN", "tiplocCode": "ELINTN", "crsCode": "ELT", "stationName": "East Linton", "lat": "55.9856", "long": "-2.6579"}, {"atcoCode": "9100HBOLTN", "tiplocCode": "HBOLTN", "crsCode": "HBL", "stationName": "Headbolt Lane", "lat": "53.491136", "long": "-2.885591"}, {"atcoCode": "9100THANETP", "tiplocCode": "THANETP", "crsCode": "THP", "stationName": "Thanet Parkway", "lat": "51.330843", "long": "1.361777"}, {"atcoCode": "9100MSBTN", "tiplocCode": "MSBTN", "crsCode": "MBT", "stationName": "Marsh Barton", "lat": "50.7043", "long": "-3.52133"}, {"atcoCode": "9100REDGGPK", "tiplocCode": "REDGGPK", "crsCode": "RGP", "stationName": "Reading Green Park", "lat": "51.426667", "long": "-1.001389"}, {"atcoCode": "9100IVRNAIR", "tiplocCode": "IVRNAIR", "crsCode": "IVA", "stationName": "Inverness Airport", "lat": "57.5335", "long": "-4.0552"}, {"atcoCode": "9100SOHAM", "tiplocCode": "SOHAM", "crsCode": "SOJ", "stationName": "Soham", "lat": "52.33415", "long": "0.3277"}, {"atcoCode": "9100BOWSTRT", "tiplocCode": "BOWSTRT", "crsCode": "BOW", "stationName": "Bow Street", "lat": "52.439914", "long": "-4.03036"}, {"atcoCode": "9100HORD", "tiplocCode": "HORD", "crsCode": "HRE", "stationName": "Horden", "lat": "54.763879", "long": "-1.307347"}, {"atcoCode": "9100MAGHNTH", "tiplocCode": "MAGHNTH", "crsCode": "MNS", "stationName": "Maghull North", "lat": "53.5167", "long": "-2.9213"}, {"atcoCode": "9100RESTSTN", "tiplocCode": "RESTSTN", "crsCode": "RSN", "stationName": "Reston", "lat": "55.84985", "long": "-2.19266"}, {"atcoCode": "9100BRENTX", "tiplocCode": "BRENTX", "crsCode": "BCZ", "stationName": "Brent Cross West Station", "lat": "51.568429", "long": "-0.22548819"}, {"atcoCode": "9100ABDO", "tiplocCode": "ABDO", "crsCode": "AUR", "stationName": "Aberdour Rail Station", "lat": "56.05459191149", "long": "-3.30056001734"}, {"atcoCode": "9100ABDVY", "tiplocCode": "ABDVY", "crsCode": "AVY", "stationName": "Aberdovey Rail Station", "lat": "52.54395659957", "long": "-4.05706706793"}, {"atcoCode": "9100ABER", "tiplocCode": "ABER", "crsCode": "ABE", "stationName": "Aber Rail Station", "lat": "51.5749655354", "long": "-3.22982847743"}, {"atcoCode": "9100ABGLELE", "tiplocCode": "ABGLELE", "crsCode": "AGL", "stationName": "Abergele & Pensarn Rail Station", "lat": "53.29457303057", "long": "-3.58262198838"}, {"atcoCode": "9100ABRCYNS", "tiplocCode": "ABRCYNS", "crsCode": "ACY", "stationName": "Abercynon Rail Station", "lat": "51.643449909", "long": "-3.32856986148"}, {"atcoCode": "9100ABRDEEN", "tiplocCode": "ABRDEEN", "crsCode": "ABD", "stationName": "Aberdeen Rail Station", "lat": "57.14370402316", "long": "-2.0986851221"}, {"atcoCode": "9100ABRE", "tiplocCode": "ABRE", "crsCode": "ABH", "stationName": "Abererch Rail Station", "lat": "52.89858306624", "long": "-4.37417543673"}, {"atcoCode": "9100ABRGVNY", "tiplocCode": "ABRGVNY", "crsCode": "AGV", "stationName": "Abergavenny Rail Station", "lat": "51.81668982233", "long": "-3.0096467989"}, {"atcoCode": "9100ABRYSTH", "tiplocCode": "ABRYSTH", "crsCode": "AYW", "stationName": "Aberystwyth Rail Station", "lat": "52.41404494843", "long": "-4.08189352291"}, {"atcoCode": "9100ABWD", "tiplocCode": "ABWD", "crsCode": "ABW", "stationName": "Abbey Wood (London) Rail Station", "lat": "51.49106246827", "long": "0.12139411536"}, {"atcoCode": "9100ACBG", "tiplocCode": "ACBG", "crsCode": "ACB", "stationName": "Acton Bridge Rail Station", "lat": "53.26650719553", "long": "-2.6031265241"}, {"atcoCode": "9100ACHANLT", "tiplocCode": "ACHANLT", "crsCode": "AAT", "stationName": "Achanalt Rail Station", "lat": "57.60959583643", "long": "-4.91385125753"}, {"atcoCode": "9100ACHHSHL", "tiplocCode": "ACHHSHL", "crsCode": "ACH", "stationName": "Achnashellach Rail Station", "lat": "57.4820742655", "long": "-5.33305525596"}, {"atcoCode": "9100ACHILCK", "tiplocCode": "ACHILCK", "crsCode": "AUK", "stationName": "Auchinleck Rail Station", "lat": "55.47027326493", "long": "-4.29534918715"}, {"atcoCode": "9100ACHNSHN", "tiplocCode": "ACHNSHN", "crsCode": "ACN", "stationName": "Achnasheen Rail Station", "lat": "57.57928965421", "long": "-5.07233213915"}, {"atcoCode": "9100ACKLNGT", "tiplocCode": "ACKLNGT", "crsCode": "ACK", "stationName": "Acklington Rail Station", "lat": "55.3070982414", "long": "-1.65183461346"}, {"atcoCode": "9100ACLE", "tiplocCode": "ACLE", "crsCode": "ACL", "stationName": "Acle Rail Station", "lat": "52.63468201731", "long": "1.54391527585"}, {"atcoCode": "9100ACOCKSG", "tiplocCode": "ACOCKSG", "crsCode": "ACG", "stationName": "Acocks Green Rail Station", "lat": "52.44932277674", "long": "-1.81897541144"}, {"atcoCode": "9100ACRNGTN", "tiplocCode": "ACRNGTN", "crsCode": "ACR", "stationName": "Accrington Rail Station", "lat": "53.75297118076", "long": "-2.36954777807"}, {"atcoCode": "9100ACTNCTL", "tiplocCode": "ACTNCTL", "crsCode": "ACC", "stationName": "Acton Central Rail Station", "lat": "51.50871627818", "long": "-0.26297061476"}, {"atcoCode": "9100ACTONML", "tiplocCode": "ACTONML", "crsCode": "AML", "stationName": "Acton Main Line Rail Station", "lat": "51.51718014558", "long": "-0.26675636171"}, {"atcoCode": "9100ADERLYP", "tiplocCode": "ADERLYP", "crsCode": "ADD", "stationName": "Adderley Park Rail Station", "lat": "52.4830859425", "long": "-1.85594442017"}, {"atcoCode": "9100ADIEWEL", "tiplocCode": "ADIEWEL", "crsCode": "ADW", "stationName": "Addiewell Rail Station", "lat": "55.8434089458", "long": "-3.60652641249"}, {"atcoCode": "9100ADISHAM", "tiplocCode": "ADISHAM", "crsCode": "ADM", "stationName": "Adisham Rail Station", "lat": "51.24120153594", "long": "1.19908926763"}, {"atcoCode": "9100ADLC", "tiplocCode": "ADLC", "crsCode": "ADC", "stationName": "Adlington (Cheshire) Rail Station", "lat": "53.31955397865", "long": "-2.13356247282"}, {"atcoCode": "9100ADLESTN", "tiplocCode": "ADLESTN", "crsCode": "ASN", "stationName": "Addlestone Rail Station", "lat": "51.37304566372", "long": "-0.48445671716"}, {"atcoCode": "9100ADNL", "tiplocCode": "ADNL", "crsCode": "ADL", "stationName": "Adlington (Lancs) Rail Station", "lat": "53.61324428059", "long": "-2.60307081313"}, {"atcoCode": "9100ADWICK", "tiplocCode": "ADWICK", "crsCode": "AWK", "stationName": "Adwick Rail Station", "lat": "53.57232071859", "long": "-1.18035620719"}, {"atcoCode": "9100AGHTNPH", "tiplocCode": "AGHTNPH", "crsCode": "AUG", "stationName": "Aughton Park Rail Station", "lat": "53.55424741626", "long": "-2.89522081448"}, {"atcoCode": "9100AIGBURT", "tiplocCode": "AIGBURT", "crsCode": "AIG", "stationName": "Aigburth Rail Station", "lat": "53.36456492063", "long": "-2.92715492547"}, {"atcoCode": "9100AINSDAL", "tiplocCode": "AINSDAL", "crsCode": "ANS", "stationName": "Ainsdale Rail Station", "lat": "53.60203225634", "long": "-3.04265200904"}, {"atcoCode": "9100AINTREE", "tiplocCode": "AINTREE", "crsCode": "AIN", "stationName": "Aintree Rail Station", "lat": "53.47390962432", "long": "-2.9562803142"}, {"atcoCode": "9100AIRBLES", "tiplocCode": "AIRBLES", "crsCode": "AIR", "stationName": "Airbles Rail Station", "lat": "55.78283310401", "long": "-3.994192441"}, {"atcoCode": "9100AIRDRIE", "tiplocCode": "AIRDRIE", "crsCode": "ADR", "stationName": "Airdrie Rail Station", "lat": "55.86397879776", "long": "-3.98291206378"}, {"atcoCode": "9100AIRP", "tiplocCode": "AIRP", "crsCode": "APN", "stationName": "Newcastle Airport Metro", "lat": "55.03594906574", "long": "-1.71104650989"}, {"atcoCode": "9100ALBNYPK", "tiplocCode": "ALBNYPK", "crsCode": "AYP", "stationName": "Albany Park Rail Station", "lat": "51.43545265496", "long": "0.12573715609"}, {"atcoCode": "9100ALBRGHT", "tiplocCode": "ALBRGHT", "crsCode": "ALB", "stationName": "Albrighton Rail Station", "lat": "52.63794224624", "long": "-2.26889994437"}, {"atcoCode": "9100ALDEDGE", "tiplocCode": "ALDEDGE", "crsCode": "ALD", "stationName": "Alderley Edge Rail Station", "lat": "53.30378012757", "long": "-2.23679906922"}, {"atcoCode": "9100ALDMSTN", "tiplocCode": "ALDMSTN", "crsCode": "AMT", "stationName": "Aldermaston Rail Station", "lat": "51.40196169823", "long": "-1.1374238096"}, {"atcoCode": "9100ALDRSHT", "tiplocCode": "ALDRSHT", "crsCode": "AHT", "stationName": "Aldershot Rail Station", "lat": "51.24641837711", "long": "-0.75985979888"}, {"atcoCode": "9100ALDTON", "tiplocCode": "ALDTON", "crsCode": "AGT", "stationName": "Aldrington Rail Station", "lat": "50.83638383869", "long": "-0.18382143408"}, {"atcoCode": "9100ALERTN", "tiplocCode": "ALERTN", "crsCode": "LPY", "stationName": "Liverpool South Parkway Rail Station", "lat": "53.3577440907", "long": "-2.88912776514"}, {"atcoCode": "9100ALEXNDP", "tiplocCode": "ALEXNDP", "crsCode": "AAP", "stationName": "Alexandra Palace Rail Station", "lat": "51.59792399595", "long": "-0.12023513932"}, {"atcoCode": "9100ALFRETN", "tiplocCode": "ALFRETN", "crsCode": "ALF", "stationName": "Alfreton Rail Station", "lat": "53.10043172212", "long": "-1.36969607227"}, {"atcoCode": "9100ALLENSW", "tiplocCode": "ALLENSW", "crsCode": "ALW", "stationName": "Allens West Rail Station", "lat": "54.52462276218", "long": "-1.36111669221"}, {"atcoCode": "9100ALLOA", "tiplocCode": "ALLOA", "crsCode": "ALO", "stationName": "Alloa Rail Station", "lat": "56.11778919186", "long": "-3.79005562154"}, {"atcoCode": "9100ALNESS", "tiplocCode": "ALNESS", "crsCode": "ASS", "stationName": "Alness Rail Station", "lat": "57.69439411691", "long": "-4.24971628511"}, {"atcoCode": "9100ALNMOTH", "tiplocCode": "ALNMOTH", "crsCode": "ALM", "stationName": "Alnmouth Rail Station", "lat": "55.39277757806", "long": "-1.63663765884"}, {"atcoCode": "9100ALRESFD", "tiplocCode": "ALRESFD", "crsCode": "ALR", "stationName": "Alresford (Essex) Rail Station", "lat": "51.85400078986", "long": "0.9974365883"}, {"atcoCode": "9100ALSAGER", "tiplocCode": "ALSAGER", "crsCode": "ASG", "stationName": "Alsager Rail Station", "lat": "53.09300333618", "long": "-2.29905753309"}, {"atcoCode": "9100ALSHAM", "tiplocCode": "ALSHAM", "crsCode": "AYH", "stationName": "Aylesham Rail Station", "lat": "51.22725429648", "long": "1.2094529054"}, {"atcoCode": "9100ALTHORN", "tiplocCode": "ALTHORN", "crsCode": "ALN", "stationName": "Althorne Rail Station", "lat": "51.6478704748", "long": "0.7524835631"}, {"atcoCode": "9100ALTNBRC", "tiplocCode": "ALTNBRC", "crsCode": "ABC", "stationName": "Altnabreac Rail Station", "lat": "58.38814827615", "long": "-3.70628021863"}, {"atcoCode": "9100ALTON", "tiplocCode": "ALTON", "crsCode": "AON", "stationName": "Alton Rail Station", "lat": "51.15196879112", "long": "-0.96691319996"}, {"atcoCode": "9100ALTPE", "tiplocCode": "ALTPE", "crsCode": "ALP", "stationName": "Althorpe Rail Station", "lat": "53.58550078559", "long": "-0.73318220149"}, {"atcoCode": "9100ALTRNHM", "tiplocCode": "ALTRNHM", "crsCode": "ALT", "stationName": "Altrincham Rail Station", "lat": "53.38771656569", "long": "-2.34688878555"}, {"atcoCode": "9100ALVCHRC", "tiplocCode": "ALVCHRC", "crsCode": "ALV", "stationName": "Alvechurch Rail Station", "lat": "52.34607058592", "long": "-1.96766049449"}, {"atcoCode": "9100ALXANDR", "tiplocCode": "ALXANDR", "crsCode": "ALX", "stationName": "Alexandria Rail Station", "lat": "55.98508314964", "long": "-4.57748423627"}, {"atcoCode": "9100ALXPD", "tiplocCode": "ALXPD", "crsCode": "AXP", "stationName": "Alexandra Parade Rail Station", "lat": "55.86317091519", "long": "-4.21064800754"}, {"atcoCode": "9100AMBERGT", "tiplocCode": "AMBERGT", "crsCode": "AMB", "stationName": "Ambergate Rail Station", "lat": "53.06051632822", "long": "-1.4806974242"}, {"atcoCode": "9100AMERSHM", "tiplocCode": "AMERSHM", "crsCode": "AMR", "stationName": "Amersham Rail Station", "lat": "51.67420579888", "long": "-0.60759605596"}, {"atcoCode": "9100AMLY", "tiplocCode": "AMLY", "crsCode": "AMY", "stationName": "Amberley Rail Station", "lat": "50.89668002212", "long": "-0.54199232704"}, {"atcoCode": "9100AMMANFD", "tiplocCode": "AMMANFD", "crsCode": "AMF", "stationName": "Ammanford Rail Station", "lat": "51.79597472721", "long": "-3.99673488783"}, {"atcoCode": "9100ANCASTR", "tiplocCode": "ANCASTR", "crsCode": "ANC", "stationName": "Ancaster Rail Station", "lat": "52.98768735647", "long": "-0.53562365209"}, {"atcoCode": "9100ANDOVER", "tiplocCode": "ANDOVER", "crsCode": "ADV", "stationName": "Andover Rail Station", "lat": "51.21154688023", "long": "-1.49223291317"}, {"atcoCode": "9100ANDRSTN", "tiplocCode": "ANDRSTN", "crsCode": "AND", "stationName": "Anderston Rail Station", "lat": "55.85989696643", "long": "-4.27097904299"}, {"atcoCode": "9100ANERLEY", "tiplocCode": "ANERLEY", "crsCode": "ANZ", "stationName": "Anerley Rail Station", "lat": "51.41215298564", "long": "-0.06588583993"}, {"atcoCode": "9100ANGELRD", "tiplocCode": "ANGELRD", "crsCode": "AGR", "stationName": "Angel Road Rail Station", "lat": "51.61240492759", "long": "-0.0487913406"}, {"atcoCode": "9100ANGMRNG", "tiplocCode": "ANGMRNG", "crsCode": "ANG", "stationName": "Angmering Rail Station", "lat": "50.81657531232", "long": "-0.48939393986"}, {"atcoCode": "9100ANNAN", "tiplocCode": "ANNAN", "crsCode": "ANN", "stationName": "Annan Rail Station", "lat": "54.98383526891", "long": "-3.26258045813"}, {"atcoCode": "9100ANSDELL", "tiplocCode": "ANSDELL", "crsCode": "AFV", "stationName": "Ansdell & Fairhaven Rail Station", "lat": "53.74146228451", "long": "-2.99303395065"}, {"atcoCode": "9100ANSL", "tiplocCode": "ANSL", "crsCode": "ANL", "stationName": "Anniesland Rail Station", "lat": "55.88935027219", "long": "-4.32195682994"}, {"atcoCode": "9100APBY", "tiplocCode": "APBY", "crsCode": "APP", "stationName": "Appleby Rail Station", "lat": "54.58034642846", "long": "-2.48669223087"}, {"atcoCode": "9100APDR", "tiplocCode": "APDR", "crsCode": "APD", "stationName": "Appledore (Kent) Rail Station", "lat": "51.03323728979", "long": "0.81634166033"}, {"atcoCode": "9100APERLYB", "tiplocCode": "APERLYB", "crsCode": "APY", "stationName": "Apperley Bridge Rail Station", "lat": "53.84174897167", "long": "-1.70582848003"}, {"atcoCode": "9100APLYBDG", "tiplocCode": "APLYBDG", "crsCode": "APB", "stationName": "Appley Bridge Rail Station", "lat": "53.57867074359", "long": "-2.71925209845"}, {"atcoCode": "9100APPLEFD", "tiplocCode": "APPLEFD", "crsCode": "APF", "stationName": "Appleford Rail Station", "lat": "51.63964121574", "long": "-1.24214140361"}, {"atcoCode": "9100APSLEY", "tiplocCode": "APSLEY", "crsCode": "APS", "stationName": "Apsley Rail Station", "lat": "51.73252176017", "long": "-0.46293473253"}, {"atcoCode": "9100ARBROTH", "tiplocCode": "ARBROTH", "crsCode": "ARB", "stationName": "Arbroath Rail Station", "lat": "56.559573741", "long": "-2.58893139426"}, {"atcoCode": "9100ARCHRAT", "tiplocCode": "ARCHRAT", "crsCode": "ART", "stationName": "Arrochar & Tarbet Rail Station", "lat": "56.20397079227", "long": "-4.72277004057"}, {"atcoCode": "9100ARDGAY", "tiplocCode": "ARDGAY", "crsCode": "ARD", "stationName": "Ardgay Rail Station", "lat": "57.88145239367", "long": "-4.36208920609"}, {"atcoCode": "9100ARDLUI", "tiplocCode": "ARDLUI", "crsCode": "AUI", "stationName": "Ardlui Rail Station", "lat": "56.30196654417", "long": "-4.72165737568"}, {"atcoCode": "9100ARDRSHB", "tiplocCode": "ARDRSHB", "crsCode": "ADS", "stationName": "Ardrossan Harbour Rail Station", "lat": "55.63987223045", "long": "-4.82111037688"}, {"atcoCode": "9100ARDRSSB", "tiplocCode": "ARDRSSB", "crsCode": "ASB", "stationName": "Ardrossan South Beach Rail Station", "lat": "55.64141617387", "long": "-4.80121139475"}, {"atcoCode": "9100ARDRSTN", "tiplocCode": "ARDRSTN", "crsCode": "ADN", "stationName": "Ardrossan Town Rail Station", "lat": "55.63970646967", "long": "-4.81267519968"}, {"atcoCode": "9100ARDWICK", "tiplocCode": "ARDWICK", "crsCode": "ADK", "stationName": "Ardwick Rail Station", "lat": "53.47154982765", "long": "-2.21432180977"}, {"atcoCode": "9100ARGYLST", "tiplocCode": "ARGYLST", "crsCode": "AGS", "stationName": "Argyle Street Rail Station", "lat": "55.8573039361", "long": "-4.25069388384"}, {"atcoCode": "9100ARISAIG", "tiplocCode": "ARISAIG", "crsCode": "ARG", "stationName": "Arisaig Rail Station", "lat": "56.9125463927", "long": "-5.83907767832"}, {"atcoCode": "9100ARLSEY", "tiplocCode": "ARLSEY", "crsCode": "ARL", "stationName": "Arlesey Rail Station", "lat": "52.02603126054", "long": "-0.26631975935"}, {"atcoCode": "9100ARMDALE", "tiplocCode": "ARMDALE", "crsCode": "ARM", "stationName": "Armadale (W Lothian) Rail Station", "lat": "55.88570975781", "long": "-3.69541259893"}, {"atcoCode": "9100ARMTHWT", "tiplocCode": "ARMTHWT", "crsCode": "AWT", "stationName": "Armathwaite Rail Station", "lat": "54.80946514572", "long": "-2.77207104301"}, {"atcoCode": "9100ARNSIDE", "tiplocCode": "ARNSIDE", "crsCode": "ARN", "stationName": "Arnside Rail Station", "lat": "54.20272857701", "long": "-2.82824144558"}, {"atcoCode": "9100ARRAM", "tiplocCode": "ARRAM", "crsCode": "ARR", "stationName": "Arram Rail Station", "lat": "53.88434367979", "long": "-0.42657005177"}, {"atcoCode": "9100ARUNDEL", "tiplocCode": "ARUNDEL", "crsCode": "ARU", "stationName": "Arundel Rail Station", "lat": "50.84821482762", "long": "-0.54617421767"}, {"atcoCode": "9100ASCOT", "tiplocCode": "ASCOT", "crsCode": "ACT", "stationName": "Ascot Rail Station", "lat": "51.40624365202", "long": "-0.6758331694"}, {"atcoCode": "9100ASCTUWD", "tiplocCode": "ASCTUWD", "crsCode": "AUW", "stationName": "Ascott-under-Wychwood Rail Station", "lat": "51.86734078069", "long": "-1.56405264014"}, {"atcoCode": "9100ASFDMSX", "tiplocCode": "ASFDMSX", "crsCode": "AFS", "stationName": "Ashford (Surrey) Rail Station", "lat": "51.43650719705", "long": "-0.46807091587"}, {"atcoCode": "9100ASFIELD", "tiplocCode": "ASFIELD", "crsCode": "ASF", "stationName": "Ashfield Rail Station", "lat": "55.88892180962", "long": "-4.24921411534"}, {"atcoCode": "9100ASHBRYS", "tiplocCode": "ASHBRYS", "crsCode": "ABY", "stationName": "Ashburys Rail Station", "lat": "53.47163781038", "long": "-2.19443633042"}, {"atcoCode": "9100ASHCHRC", "tiplocCode": "ASHCHRC", "crsCode": "ASC", "stationName": "Ashchurch for Tewkesbury Rail Station", "lat": "51.99890403964", "long": "-2.10875994357"}, {"atcoCode": "9100ASHD", "tiplocCode": "ASHD", "crsCode": "AHD", "stationName": "Ashtead Rail Station", "lat": "51.31787379401", "long": "-0.30757168547"}, {"atcoCode": "9100ASHFKY", "tiplocCode": "ASHFKY", "crsCode": "AFK", "stationName": "Ashford International Rail Station", "lat": "51.14370585721", "long": "0.87619737944"}, {"atcoCode": "9100ASHH", "tiplocCode": "ASHH", "crsCode": "ASH", "stationName": "Ash Rail Station", "lat": "51.24959731625", "long": "-0.71280538722"}, {"atcoCode": "9100ASHLEY", "tiplocCode": "ASHLEY", "crsCode": "ASY", "stationName": "Ashley Rail Station", "lat": "53.35572365976", "long": "-2.34146042588"}, {"atcoCode": "9100ASHONUL", "tiplocCode": "ASHONUL", "crsCode": "AHN", "stationName": "Ashton-under-Lyne Rail Station", "lat": "53.49127288532", "long": "-2.09431227099"}, {"atcoCode": "9100ASHURST", "tiplocCode": "ASHURST", "crsCode": "AHS", "stationName": "Ashurst (Kent) Rail Station", "lat": "51.12866279737", "long": "0.15265220319"}, {"atcoCode": "9100ASHVALE", "tiplocCode": "ASHVALE", "crsCode": "AHV", "stationName": "Ash Vale Rail Station", "lat": "51.2722469404", "long": "-0.72164850871"}, {"atcoCode": "9100ASHWELC", "tiplocCode": "ASHWELC", "crsCode": "AWM", "stationName": "Ashwell & Morden Rail Station", "lat": "52.03077214672", "long": "-0.10978883668"}, {"atcoCode": "9100ASKAM", "tiplocCode": "ASKAM", "crsCode": "ASK", "stationName": "Askam Rail Station", "lat": "54.18892963805", "long": "-3.20451119051"}, {"atcoCode": "9100ASLCKTN", "tiplocCode": "ASLCKTN", "crsCode": "ALK", "stationName": "Aslockton Rail Station", "lat": "52.95154976132", "long": "-0.89809752325"}, {"atcoCode": "9100ASPLEYG", "tiplocCode": "ASPLEYG", "crsCode": "APG", "stationName": "Aspley Guise Rail Station", "lat": "52.02123684616", "long": "-0.63233442292"}, {"atcoCode": "9100ASPTRIA", "tiplocCode": "ASPTRIA", "crsCode": "ASP", "stationName": "Aspatria Rail Station", "lat": "54.75895619255", "long": "-3.33187360253"}, {"atcoCode": "9100ASTON", "tiplocCode": "ASTON", "crsCode": "AST", "stationName": "Aston Rail Station", "lat": "52.50423065769", "long": "-1.87193353804"}, {"atcoCode": "9100ATADALE", "tiplocCode": "ATADALE", "crsCode": "ATT", "stationName": "Attadale Rail Station", "lat": "57.39503655976", "long": "-5.45557705188"}, {"atcoCode": "9100ATHERTN", "tiplocCode": "ATHERTN", "crsCode": "ATN", "stationName": "Atherton Rail Station", "lat": "53.5291438805", "long": "-2.4789719932"}, {"atcoCode": "9100ATHRSTN", "tiplocCode": "ATHRSTN", "crsCode": "ATH", "stationName": "Atherstone Rail Station", "lat": "52.57897120193", "long": "-1.55281130806"}, {"atcoCode": "9100ATNBRO", "tiplocCode": "ATNBRO", "crsCode": "ATB", "stationName": "Attenborough Rail Station", "lat": "52.90621295338", "long": "-1.23141548016"}, {"atcoCode": "9100ATTLBON", "tiplocCode": "ATTLBON", "crsCode": "ATL", "stationName": "Attleborough Rail Station", "lat": "52.51454794364", "long": "1.02234774572"}, {"atcoCode": "9100AUDLEYE", "tiplocCode": "AUDLEYE", "crsCode": "AUD", "stationName": "Audley End Rail Station", "lat": "52.00443983957", "long": "0.20730569075"}, {"atcoCode": "9100AVIEMRE", "tiplocCode": "AVIEMRE", "crsCode": "AVM", "stationName": "Aviemore Rail Station", "lat": "57.18851180144", "long": "-3.82886717842"}, {"atcoCode": "9100AVNCLFF", "tiplocCode": "AVNCLFF", "crsCode": "AVF", "stationName": "Avoncliff Rail Station", "lat": "51.3396508457", "long": "-2.28132527867"}, {"atcoCode": "9100AVONMTH", "tiplocCode": "AVONMTH", "crsCode": "AVN", "stationName": "Avonmouth Rail Station", "lat": "51.50036215509", "long": "-2.69946610827"}, {"atcoCode": "9100AXMNSTR", "tiplocCode": "AXMNSTR", "crsCode": "AXM", "stationName": "Axminster Rail Station", "lat": "50.77927120095", "long": "-3.00472309727"}, {"atcoCode": "9100AYLESFD", "tiplocCode": "AYLESFD", "crsCode": "AYL", "stationName": "Aylesford Rail Station", "lat": "51.301317844", "long": "0.46617068355"}, {"atcoCode": "9100AYLSBRY", "tiplocCode": "AYLSBRY", "crsCode": "AYS", "stationName": "Aylesbury Rail Station", "lat": "51.81389057916", "long": "-0.81509590543"}, {"atcoCode": "9100AYLSPWY", "tiplocCode": "AYLSPWY", "crsCode": "AVP", "stationName": "Aylesbury Vale Parkway Rail Station", "lat": "51.83115901817", "long": "-0.86018234228"}, {"atcoCode": "9100AYRR", "tiplocCode": "AYRR", "crsCode": "AYR", "stationName": "Ayr Rail Station", "lat": "55.45814202618", "long": "-4.62587561471"}, {"atcoCode": "9100BACHE", "tiplocCode": "BACHE", "crsCode": "BAC", "stationName": "Bache Rail Station", "lat": "53.20878566244", "long": "-2.89167004578"}, {"atcoCode": "9100BAGE", "tiplocCode": "BAGE", "crsCode": "BNA", "stationName": "Burnage Rail Station", "lat": "53.42116681578", "long": "-2.21567811439"}, {"atcoCode": "9100BAGSHOT", "tiplocCode": "BAGSHOT", "crsCode": "BAG", "stationName": "Bagshot Rail Station", "lat": "51.36436751968", "long": "-0.68866191091"}, {"atcoCode": "9100BAILDON", "tiplocCode": "BAILDON", "crsCode": "BLD", "stationName": "Baildon Rail Station", "lat": "53.85022428912", "long": "-1.75363618902"}, {"atcoCode": "9100BALCOMB", "tiplocCode": "BALCOMB", "crsCode": "BAB", "stationName": "Balcombe Rail Station", "lat": "51.0555216567", "long": "-0.13693367765"}, {"atcoCode": "9100BALDOCK", "tiplocCode": "BALDOCK", "crsCode": "BDK", "stationName": "Baldock Rail Station", "lat": "51.99287120941", "long": "-0.18756367372"}, {"atcoCode": "9100BALHAM", "tiplocCode": "BALHAM", "crsCode": "BAL", "stationName": "Balham Rail Station", "lat": "51.44322487289", "long": "-0.15242441575"}, {"atcoCode": "9100BALISTN", "tiplocCode": "BALISTN", "crsCode": "BIO", "stationName": "Baillieston Rail Station", "lat": "55.84450099237", "long": "-4.11369840014"}, {"atcoCode": "9100BALLOCH", "tiplocCode": "BALLOCH", "crsCode": "BHC", "stationName": "Balloch Rail Station", "lat": "56.00293367261", "long": "-4.5834854062"}, {"atcoCode": "9100BALMOSS", "tiplocCode": "BALMOSS", "crsCode": "BSI", "stationName": "Balmossie Rail Station", "lat": "56.47456561313", "long": "-2.83895577579"}, {"atcoCode": "9100BAMFORD", "tiplocCode": "BAMFORD", "crsCode": "BAM", "stationName": "Bamford Rail Station", "lat": "53.33899974575", "long": "-1.68908172623"}, {"atcoCode": "9100BANAVIE", "tiplocCode": "BANAVIE", "crsCode": "BNV", "stationName": "Banavie Rail Station", "lat": "56.84330826717", "long": "-5.09542558529"}, {"atcoCode": "9100BANGOR", "tiplocCode": "BANGOR", "crsCode": "BNG", "stationName": "Bangor (Gwynedd) Rail Station", "lat": "53.22228257233", "long": "-4.13587993187"}, {"atcoCode": "9100BANSTED", "tiplocCode": "BANSTED", "crsCode": "BAD", "stationName": "Banstead Rail Station", "lat": "51.32934884567", "long": "-0.21315885243"}, {"atcoCode": "9100BARASIE", "tiplocCode": "BARASIE", "crsCode": "BSS", "stationName": "Barassie Rail Station", "lat": "55.56105870797", "long": "-4.65113849796"}, {"atcoCode": "9100BARELA", "tiplocCode": "BARELA", "crsCode": "BAR", "stationName": "Bare Lane Rail Station", "lat": "54.07454140233", "long": "-2.83533041899"}, {"atcoCode": "9100BARGOED", "tiplocCode": "BARGOED", "crsCode": "BGD", "stationName": "Bargoed Rail Station", "lat": "51.69230918463", "long": "-3.22967955711"}, {"atcoCode": "9100BARKING", "tiplocCode": "BARKING", "crsCode": "BKG", "stationName": "Barking Rail Station", "lat": "51.53949471555", "long": "0.08090251386"}, {"atcoCode": "9100BARLSTN", "tiplocCode": "BARLSTN", "crsCode": "BRT", "stationName": "Barlaston Rail Station", "lat": "52.942872159", "long": "-2.16811110844"}, {"atcoCode": "9100BARMING", "tiplocCode": "BARMING", "crsCode": "BMG", "stationName": "Barming Rail Station", "lat": "51.28489519974", "long": "0.47895820334"}, {"atcoCode": "9100BARNES", "tiplocCode": "BARNES", "crsCode": "BNS", "stationName": "Barnes Rail Station", "lat": "51.46708608626", "long": "-0.24216421148"}, {"atcoCode": "9100BAROW", "tiplocCode": "BAROW", "crsCode": "BIF", "stationName": "Barrow-in-Furness Rail Station", "lat": "54.11900014196", "long": "-3.22612033522"}, {"atcoCode": "9100BAROWOS", "tiplocCode": "BAROWOS", "crsCode": "BWS", "stationName": "Barrow upon Soar Rail Station", "lat": "52.74933565016", "long": "-1.14484294012"}, {"atcoCode": "9100BARRY", "tiplocCode": "BARRY", "crsCode": "BRY", "stationName": "Barry Rail Station", "lat": "51.3967826006", "long": "-3.28498436634"}, {"atcoCode": "9100BARRYDK", "tiplocCode": "BARRYDK", "crsCode": "BYD", "stationName": "Barry Docks Rail Station", "lat": "51.40244165557", "long": "-3.26070334809"}, {"atcoCode": "9100BARRYIS", "tiplocCode": "BARRYIS", "crsCode": "BYI", "stationName": "Barry Island Rail Station", "lat": "51.39241342391", "long": "-3.27336341989"}, {"atcoCode": "9100BARWHVN", "tiplocCode": "BARWHVN", "crsCode": "BAV", "stationName": "Barrow Haven Rail Station", "lat": "53.69742091892", "long": "-0.39295515945"}, {"atcoCode": "9100BASILDN", "tiplocCode": "BASILDN", "crsCode": "BSO", "stationName": "Basildon Rail Station", "lat": "51.56810648734", "long": "0.4567889653"}, {"atcoCode": "9100BATABAL", "tiplocCode": "BATABAL", "crsCode": "BBL", "stationName": "Bat & Ball Rail Station", "lat": "51.2897607812", "long": "0.19422757424"}, {"atcoCode": "9100BATHSPA", "tiplocCode": "BATHSPA", "crsCode": "BTH", "stationName": "Bath Spa Rail Station", "lat": "51.37768623236", "long": "-2.35701815017"}, {"atcoCode": "9100BATLEY", "tiplocCode": "BATLEY", "crsCode": "BTL", "stationName": "Batley Rail Station", "lat": "53.70994134066", "long": "-1.6229524536"}, {"atcoCode": "9100BATRSPK", "tiplocCode": "BATRSPK", "crsCode": "BAK", "stationName": "Battersea Park Rail Station", "lat": "51.47695975247", "long": "-0.14753343958"}, {"atcoCode": "9100BATTLE", "tiplocCode": "BATTLE", "crsCode": "BAT", "stationName": "Battle Rail Station", "lat": "50.91291557408", "long": "0.49470289462"}, {"atcoCode": "9100BAYFORD", "tiplocCode": "BAYFORD", "crsCode": "BAY", "stationName": "Bayford Rail Station", "lat": "51.75771642993", "long": "-0.09560993933"}, {"atcoCode": "9100BCHGRV", "tiplocCode": "BCHGRV", "crsCode": "BCG", "stationName": "Birchgrove Rail Station", "lat": "51.52155619109", "long": "-3.20185323367"}, {"atcoCode": "9100BCKNHMH", "tiplocCode": "BCKNHMH", "crsCode": "BEC", "stationName": "Beckenham Hill Rail Station", "lat": "51.42458254863", "long": "-0.01595103016"}, {"atcoCode": "9100BCKNHMJ", "tiplocCode": "BCKNHMJ", "crsCode": "BKJ", "stationName": "Beckenham Junction Rail Station", "lat": "51.41103510697", "long": "-0.02581274155"}, {"atcoCode": "9100BCKNMJC", "tiplocCode": "BCKNMJC", "crsCode": "BKJ", "stationName": "Beckenham Junction Rail Station", "lat": "51.41117353191", "long": "-0.02602248016"}, {"atcoCode": "9100BCKWATR", "tiplocCode": "BCKWATR", "crsCode": "BAW", "stationName": "Blackwater Rail Station", "lat": "51.3315815812", "long": "-0.77674093582"}, {"atcoCode": "9100BCKY", "tiplocCode": "BCKY", "crsCode": "BCK", "stationName": "Buckley Rail Station", "lat": "53.16303579963", "long": "-3.05592567548"}, {"atcoCode": "9100BCNGNOS", "tiplocCode": "BCNGNOS", "crsCode": "BCH", "stationName": "Birchington-on-Sea Rail Station", "lat": "51.37749259491", "long": "1.30140859632"}, {"atcoCode": "9100BCNSFLD", "tiplocCode": "BCNSFLD", "crsCode": "BCF", "stationName": "Beaconsfield Rail Station", "lat": "51.61129123735", "long": "-0.64382219785"}, {"atcoCode": "9100BCSTN", "tiplocCode": "BCSTN", "crsCode": "BCS", "stationName": "Bicester North Rail Station", "lat": "51.90348276254", "long": "-1.15038340304"}, {"atcoCode": "9100BCSTRTN", "tiplocCode": "BCSTRTN", "crsCode": "BIT", "stationName": "Bicester Village Rail Station", "lat": "51.8930234244", "long": "-1.14876413306"}, {"atcoCode": "9100BCWD", "tiplocCode": "BCWD", "crsCode": "BWO", "stationName": "Bricket Wood Rail Station", "lat": "51.70542789111", "long": "-0.35911496191"}, {"atcoCode": "9100BDHMPTN", "tiplocCode": "BDHMPTN", "crsCode": "BDH", "stationName": "Bedhampton Rail Station", "lat": "50.85395672389", "long": "-0.99582833048"}, {"atcoCode": "9100BDMNSTR", "tiplocCode": "BDMNSTR", "crsCode": "BMT", "stationName": "Bedminster Rail Station", "lat": "51.44008788321", "long": "-2.594148945"}, {"atcoCode": "9100BDSTON", "tiplocCode": "BDSTON", "crsCode": "BID", "stationName": "Bidston Rail Station", "lat": "53.40913653201", "long": "-3.07856057923"}, {"atcoCode": "9100BEARLEY", "tiplocCode": "BEARLEY", "crsCode": "BER", "stationName": "Bearley Rail Station", "lat": "52.24441041943", "long": "-1.75025528142"}, {"atcoCode": "9100BEASDAL", "tiplocCode": "BEASDAL", "crsCode": "BSL", "stationName": "Beasdale Rail Station", "lat": "56.89955381334", "long": "-5.76380147353"}, {"atcoCode": "9100BEAULY", "tiplocCode": "BEAULY", "crsCode": "BEL", "stationName": "Beauly Rail Station", "lat": "57.47828254385", "long": "-4.46986577748"}, {"atcoCode": "9100BEBNGTN", "tiplocCode": "BEBNGTN", "crsCode": "BEB", "stationName": "Bebington Rail Station", "lat": "53.35765385894", "long": "-3.00363467306"}, {"atcoCode": "9100BECCLES", "tiplocCode": "BECCLES", "crsCode": "BCC", "stationName": "Beccles Rail Station", "lat": "52.45852250008", "long": "1.56949356787"}, {"atcoCode": "9100BEDFDM", "tiplocCode": "BEDFDM", "crsCode": "BDM", "stationName": "Bedford Rail Station", "lat": "52.13618736103", "long": "-0.47944229968"}, {"atcoCode": "9100BEDWRTH", "tiplocCode": "BEDWRTH", "crsCode": "BEH", "stationName": "Bedworth Rail Station", "lat": "52.47929669984", "long": "-1.46739207733"}, {"atcoCode": "9100BEDYN", "tiplocCode": "BEDYN", "crsCode": "BDW", "stationName": "Bedwyn Rail Station", "lat": "51.37964003023", "long": "-1.59878609614"}, {"atcoCode": "9100BEKSBRN", "tiplocCode": "BEKSBRN", "crsCode": "BKS", "stationName": "Bekesbourne Rail Station", "lat": "51.26135755917", "long": "1.13670784046"}, {"atcoCode": "9100BELM", "tiplocCode": "BELM", "crsCode": "BLM", "stationName": "Belmont Rail Station", "lat": "51.34381479967", "long": "-0.19885504531"}, {"atcoCode": "9100BELNGHM", "tiplocCode": "BELNGHM", "crsCode": "BGM", "stationName": "Bellingham Rail Station", "lat": "51.43291305851", "long": "-0.01933072445"}, {"atcoCode": "9100BELPER", "tiplocCode": "BELPER", "crsCode": "BLP", "stationName": "Belper Rail Station", "lat": "53.02375839072", "long": "-1.48251034169"}, {"atcoCode": "9100BELVEDR", "tiplocCode": "BELVEDR", "crsCode": "BVD", "stationName": "Belvedere Rail Station", "lat": "51.49211820025", "long": "0.15228619059"}, {"atcoCode": "9100BEMPTON", "tiplocCode": "BEMPTON", "crsCode": "BEM", "stationName": "Bempton Rail Station", "lat": "54.12765935378", "long": "-0.18045676255"}, {"atcoCode": "9100BENFLET", "tiplocCode": "BENFLET", "crsCode": "BEF", "stationName": "Benfleet Rail Station", "lat": "51.54394506572", "long": "0.56171347084"}, {"atcoCode": "9100BEREALS", "tiplocCode": "BEREALS", "crsCode": "BAS", "stationName": "Bere Alston Rail Station", "lat": "50.48559363649", "long": "-4.20035447755"}, {"atcoCode": "9100BEREFRS", "tiplocCode": "BEREFRS", "crsCode": "BFE", "stationName": "Bere Ferrers Rail Station", "lat": "50.45127694363", "long": "-4.18143422984"}, {"atcoCode": "9100BERKHMD", "tiplocCode": "BERKHMD", "crsCode": "BKM", "stationName": "Berkhamsted Rail Station", "lat": "51.76313385488", "long": "-0.56201289972"}, {"atcoCode": "9100BERMPRK", "tiplocCode": "BERMPRK", "crsCode": "BEP", "stationName": "Bermuda Park Rail Station", "lat": "52.50143363291", "long": "-1.47217759826"}, {"atcoCode": "9100BERRYB", "tiplocCode": "BERRYB", "crsCode": "BBW", "stationName": "Berry Brow Rail Station", "lat": "53.62104070101", "long": "-1.7934320772"}, {"atcoCode": "9100BERWICK", "tiplocCode": "BERWICK", "crsCode": "BRK", "stationName": "Berwick (Sussex) Rail Station", "lat": "50.84037829148", "long": "0.16601770049"}, {"atcoCode": "9100BESCRLA", "tiplocCode": "BESCRLA", "crsCode": "BES", "stationName": "Bescar Lane Rail Station", "lat": "53.6238522682", "long": "-2.91461053035"}, {"atcoCode": "9100BESJOHN", "tiplocCode": "BESJOHN", "crsCode": "BSJ", "stationName": "Bedford St Johns Rail Station", "lat": "52.1294781518", "long": "-0.46750094804"}, {"atcoCode": "9100BESTON", "tiplocCode": "BESTON", "crsCode": "BEE", "stationName": "Beeston Rail Station", "lat": "52.9207548099", "long": "-1.20765788907"}, {"atcoCode": "9100BETSYCD", "tiplocCode": "BETSYCD", "crsCode": "BYC", "stationName": "Betws-y-Coed Rail Station", "lat": "53.09206645431", "long": "-3.80086133617"}, {"atcoCode": "9100BEVERLY", "tiplocCode": "BEVERLY", "crsCode": "BEV", "stationName": "Beverley Rail Station", "lat": "53.84227350937", "long": "-0.42298004647"}, {"atcoCode": "9100BEXHILL", "tiplocCode": "BEXHILL", "crsCode": "BEX", "stationName": "Bexhill Rail Station", "lat": "50.84104242608", "long": "0.47701670807"}, {"atcoCode": "9100BEXLEY", "tiplocCode": "BEXLEY", "crsCode": "BXY", "stationName": "Bexley Rail Station", "lat": "51.44021947848", "long": "0.1479025861"}, {"atcoCode": "9100BGLAN", "tiplocCode": "BGLAN", "crsCode": "BAJ", "stationName": "Baglan Rail Station", "lat": "51.6155407515", "long": "-3.81113575452"}, {"atcoCode": "9100BGOALAN", "tiplocCode": "BGOALAN", "crsCode": "BEA", "stationName": "Bridge of Allan Rail Station", "lat": "56.15663513682", "long": "-3.95722851142"}, {"atcoCode": "9100BGRN", "tiplocCode": "BGRN", "crsCode": "BTG", "stationName": "Barnt Green Rail Station", "lat": "52.36108826762", "long": "-1.99246649605"}, {"atcoCode": "9100BHAMINT", "tiplocCode": "BHAMINT", "crsCode": "BHI", "stationName": "Birmingham International Rail Station", "lat": "52.45080697192", "long": "-1.72585666561"}, {"atcoCode": "9100BHAMJEW", "tiplocCode": "BHAMJEW", "crsCode": "JEQ", "stationName": "Jewellery Quarter Rail Station", "lat": "52.48943464536", "long": "-1.91321274578"}, {"atcoCode": "9100BHAMMRS", "tiplocCode": "BHAMMRS", "crsCode": "BMO", "stationName": "Birmingham Moor Street Rail Station", "lat": "52.4790792138", "long": "-1.89247250732"}, {"atcoCode": "9100BHAMNWS", "tiplocCode": "BHAMNWS", "crsCode": "BHM", "stationName": "Birmingham New Street Rail Station", "lat": "52.47781838678", "long": "-1.900205346"}, {"atcoCode": "9100BHAMSNH", "tiplocCode": "BHAMSNH", "crsCode": "BSW", "stationName": "Birmingham Snow Hill Rail Station", "lat": "52.48335525735", "long": "-1.89908845865"}, {"atcoCode": "9100BHILLPK", "tiplocCode": "BHILLPK", "crsCode": "BHK", "stationName": "Bush Hill Park Rail Station", "lat": "51.64151853929", "long": "-0.06922103243"}, {"atcoCode": "9100BICKLEY", "tiplocCode": "BICKLEY", "crsCode": "BKL", "stationName": "Bickley Rail Station", "lat": "51.40010421452", "long": "0.04524062672"}, {"atcoCode": "9100BIGLSWD", "tiplocCode": "BIGLSWD", "crsCode": "BIW", "stationName": "Biggleswade Rail Station", "lat": "52.08467984862", "long": "-0.26118711415"}, {"atcoCode": "9100BILBROK", "tiplocCode": "BILBROK", "crsCode": "BBK", "stationName": "Bilbrook Rail Station", "lat": "52.62371783641", "long": "-2.18608773615"}, {"atcoCode": "9100BILERCY", "tiplocCode": "BILERCY", "crsCode": "BIC", "stationName": "Billericay Rail Station", "lat": "51.62888366054", "long": "0.41862972179"}, {"atcoCode": "9100BILSHST", "tiplocCode": "BILSHST", "crsCode": "BIG", "stationName": "Billingshurst Rail Station", "lat": "51.01520447652", "long": "-0.45030215378"}, {"atcoCode": "9100BINGHAM", "tiplocCode": "BINGHAM", "crsCode": "BIN", "stationName": "Bingham Rail Station", "lat": "52.954190664", "long": "-0.95154325118"}, {"atcoCode": "9100BIRCHWD", "tiplocCode": "BIRCHWD", "crsCode": "BWD", "stationName": "Birchwood Rail Station", "lat": "53.41271814401", "long": "-2.525307884"}, {"atcoCode": "9100BIRKBCK", "tiplocCode": "BIRKBCK", "crsCode": "BIK", "stationName": "Birkbeck Rail Station", "lat": "51.40389159871", "long": "-0.05573865815"}, {"atcoCode": "9100BISHPTN", "tiplocCode": "BISHPTN", "crsCode": "BPT", "stationName": "Bishopton Rail Station", "lat": "55.90226398296", "long": "-4.50048646597"}, {"atcoCode": "9100BISLND", "tiplocCode": "BISLND", "crsCode": "BTS", "stationName": "Burntisland Rail Station", "lat": "56.05708065767", "long": "-3.23319774528"}, {"atcoCode": "9100BITERNE", "tiplocCode": "BITERNE", "crsCode": "BTE", "stationName": "Bitterne Rail Station", "lat": "50.91822082344", "long": "-1.37699947064"}, {"atcoCode": "9100BKDLE", "tiplocCode": "BKDLE", "crsCode": "BDL", "stationName": "Birkdale Rail Station", "lat": "53.63404958229", "long": "-3.01444960865"}, {"atcoCode": "9100BKHLS", "tiplocCode": "BKHLS", "crsCode": "BHS", "stationName": "Brockholes Rail Station", "lat": "53.59697180598", "long": "-1.76969121826"}, {"atcoCode": "9100BKNELL", "tiplocCode": "BKNELL", "crsCode": "BUK", "stationName": "Bucknell Rail Station", "lat": "52.35737892022", "long": "-2.9473778367"}, {"atcoCode": "9100BKNHRST", "tiplocCode": "BKNHRST", "crsCode": "BCU", "stationName": "Brockenhurst Rail Station", "lat": "50.81684095229", "long": "-1.57353100271"}, {"atcoCode": "9100BKSWELL", "tiplocCode": "BKSWELL", "crsCode": "BKW", "stationName": "Berkswell Rail Station", "lat": "52.39588092817", "long": "-1.6428402938"}, {"atcoCode": "9100BLAENAU", "tiplocCode": "BLAENAU", "crsCode": "BFF", "stationName": "Blaenau Ffestiniog Rail Station", "lat": "52.99454837072", "long": "-3.9385949296"}, {"atcoCode": "9100BLAIRHL", "tiplocCode": "BLAIRHL", "crsCode": "BAI", "stationName": "Blairhill Rail Station", "lat": "55.86645081485", "long": "-4.04329031236"}, {"atcoCode": "9100BLAKEDN", "tiplocCode": "BLAKEDN", "crsCode": "BKD", "stationName": "Blakedown Rail Station", "lat": "52.40640078976", "long": "-2.17686538073"}, {"atcoCode": "9100BLANTYR", "tiplocCode": "BLANTYR", "crsCode": "BLT", "stationName": "Blantyre Rail Station", "lat": "55.7973256008", "long": "-4.08697074349"}, {"atcoCode": "9100BLARATH", "tiplocCode": "BLARATH", "crsCode": "BLA", "stationName": "Blair Atholl Rail Station", "lat": "56.7655459781", "long": "-3.85022795996"}, {"atcoCode": "9100BLAYDON", "tiplocCode": "BLAYDON", "crsCode": "BLO", "stationName": "Blaydon Rail Station", "lat": "54.96578851561", "long": "-1.71258069635"}, {"atcoCode": "9100BLCHSRD", "tiplocCode": "BLCHSRD", "crsCode": "BHO", "stationName": "Blackhorse Road Rail Station", "lat": "51.58660548252", "long": "-0.04123566031"}, {"atcoCode": "9100BLCKPB", "tiplocCode": "BLCKPB", "crsCode": "BPB", "stationName": "Blackpool Pleasure Beach Rail Station", "lat": "53.78795223343", "long": "-3.05387595473"}, {"atcoCode": "9100BLCKPLN", "tiplocCode": "BLCKPLN", "crsCode": "BPN", "stationName": "Blackpool North Rail Station", "lat": "53.8219148148", "long": "-3.04927465351"}, {"atcoCode": "9100BLCKS", "tiplocCode": "BLCKS", "crsCode": "BPS", "stationName": "Blackpool South Rail Station", "lat": "53.79870074739", "long": "-3.04893781212"}, {"atcoCode": "9100BLEASBY", "tiplocCode": "BLEASBY", "crsCode": "BSB", "stationName": "Bleasby Rail Station", "lat": "53.04136506073", "long": "-0.94368743637"}, {"atcoCode": "9100BLFR", "tiplocCode": "BLFR", "crsCode": "BFR", "stationName": "London Blackfriars Rail Station", "lat": "51.5118097294", "long": "-0.10333199189"}, {"atcoCode": "9100BLGRVE", "tiplocCode": "BLGRVE", "crsCode": "BLG", "stationName": "Bellgrove Rail Station", "lat": "55.85670421885", "long": "-4.22437393276"}, {"atcoCode": "9100BLIEURD", "tiplocCode": "BLIEURD", "crsCode": "BEU", "stationName": "Beaulieu Road Rail Station", "lat": "50.8550485949", "long": "-1.50474946667"}, {"atcoCode": "9100BLKB", "tiplocCode": "BLKB", "crsCode": "BBN", "stationName": "Blackburn Rail Station", "lat": "53.74651607633", "long": "-2.47912205167"}, {"atcoCode": "9100BLKHTH", "tiplocCode": "BLKHTH", "crsCode": "BKH", "stationName": "Blackheath Rail Station", "lat": "51.46579624108", "long": "0.00887195566"}, {"atcoCode": "9100BLKRDGE", "tiplocCode": "BLKRDGE", "crsCode": "BKR", "stationName": "Blackridge Rail Station", "lat": "55.88425139381", "long": "-3.75079666851"}, {"atcoCode": "9100BLKST", "tiplocCode": "BLKST", "crsCode": "BKT", "stationName": "Blake Street Rail Station", "lat": "52.60488473632", "long": "-1.84491438218"}, {"atcoCode": "9100BLLVUE", "tiplocCode": "BLLVUE", "crsCode": "BLV", "stationName": "Belle Vue Rail Station", "lat": "53.46237460502", "long": "-2.18050695949"}, {"atcoCode": "9100BLNDLAC", "tiplocCode": "BLNDLAC", "crsCode": "BLN", "stationName": "Blundellsands & Crosby Rail Station", "lat": "53.48768343484", "long": "-3.03985977525"}, {"atcoCode": "9100BLNGHM", "tiplocCode": "BLNGHM", "crsCode": "BIL", "stationName": "Billingham Rail Station", "lat": "54.60560609915", "long": "-1.27971955308"}, {"atcoCode": "9100BLOXN", "tiplocCode": "BLOXN", "crsCode": "BWN", "stationName": "Bloxwich North Rail Station", "lat": "52.62543623428", "long": "-2.01768436339"}, {"atcoCode": "9100BLOXWCH", "tiplocCode": "BLOXWCH", "crsCode": "BLX", "stationName": "Bloxwich Rail Station", "lat": "52.6182002707", "long": "-2.01147782643"}, {"atcoCode": "9100BLRD", "tiplocCode": "BLRD", "crsCode": "BLK", "stationName": "Blackrod Rail Station", "lat": "53.59152198029", "long": "-2.5695239431"}, {"atcoCode": "9100BLSHL", "tiplocCode": "BLSHL", "crsCode": "BLH", "stationName": "Bellshill Rail Station", "lat": "55.81706346181", "long": "-4.02449908366"}, {"atcoCode": "9100BLTCHLY", "tiplocCode": "BLTCHLY", "crsCode": "BLY", "stationName": "Bletchley Rail Station", "lat": "51.99533445318", "long": "-0.73632041809"}, {"atcoCode": "9100BLTNODR", "tiplocCode": "BLTNODR", "crsCode": "BTD", "stationName": "Bolton-Upon-Dearne Rail Station", "lat": "53.51894653477", "long": "-1.31154602347"}, {"atcoCode": "9100BLTRNAB", "tiplocCode": "BLTRNAB", "crsCode": "BEG", "stationName": "Beltring Rail Station", "lat": "51.20470872283", "long": "0.40349559627"}, {"atcoCode": "9100BLYBDGE", "tiplocCode": "BLYBDGE", "crsCode": "BYB", "stationName": "Blythe Bridge Rail Station", "lat": "52.96814226727", "long": "-2.06696110809"}, {"atcoCode": "9100BMBRBDG", "tiplocCode": "BMBRBDG", "crsCode": "BMB", "stationName": "Bamber Bridge Rail Station", "lat": "53.72686651197", "long": "-2.66077497771"}, {"atcoCode": "9100BMHL", "tiplocCode": "BMHL", "crsCode": "BML", "stationName": "Bramhall Rail Station", "lat": "53.36061266009", "long": "-2.16359260384"}, {"atcoCode": "9100BMLY", "tiplocCode": "BMLY", "crsCode": "BMY", "stationName": "Bramley (Hants) Rail Station", "lat": "51.33029324397", "long": "-1.06100267378"}, {"atcoCode": "9100BNBR", "tiplocCode": "BNBR", "crsCode": "BAN", "stationName": "Banbury Rail Station", "lat": "52.06030818238", "long": "-1.32813275692"}, {"atcoCode": "9100BNDON", "tiplocCode": "BNDON", "crsCode": "BND", "stationName": "Brandon Rail Station", "lat": "52.4540074224", "long": "0.62473186797"}, {"atcoCode": "9100BNGY", "tiplocCode": "BNGY", "crsCode": "BIY", "stationName": "Bingley Rail Station", "lat": "53.84861409196", "long": "-1.83732228587"}, {"atcoCode": "9100BNHAM", "tiplocCode": "BNHAM", "crsCode": "BNM", "stationName": "Burnham (Berks) Rail Station", "lat": "51.52350552292", "long": "-0.64637373865"}, {"atcoCode": "9100BNHL", "tiplocCode": "BNHL", "crsCode": "BNL", "stationName": "Barnhill Rail Station", "lat": "55.87748980519", "long": "-4.2230048768"}, {"atcoCode": "9100BNKHALL", "tiplocCode": "BNKHALL", "crsCode": "BAH", "stationName": "Bank Hall Rail Station", "lat": "53.43749336469", "long": "-2.98751140146"}, {"atcoCode": "9100BNRHYDN", "tiplocCode": "BNRHYDN", "crsCode": "BEY", "stationName": "Ben Rhydding Rail Station", "lat": "53.92571405189", "long": "-1.79743005659"}, {"atcoCode": "9100BNSBDGE", "tiplocCode": "BNSBDGE", "crsCode": "BNI", "stationName": "Barnes Bridge Rail Station", "lat": "51.47200852133", "long": "-0.25263015589"}, {"atcoCode": "9100BNSD", "tiplocCode": "BNSD", "crsCode": "BUD", "stationName": "Burneside (Cumbria) Rail Station", "lat": "54.35497977559", "long": "-2.76667687806"}, {"atcoCode": "9100BNSLY", "tiplocCode": "BNSLY", "crsCode": "BNY", "stationName": "Barnsley Rail Station", "lat": "53.5543007868", "long": "-1.47716468299"}, {"atcoCode": "9100BNTBY", "tiplocCode": "BNTBY", "crsCode": "BTB", "stationName": "Barnetby Rail Station", "lat": "53.57512099731", "long": "-0.40967962623"}, {"atcoCode": "9100BNTEY", "tiplocCode": "BNTEY", "crsCode": "BTY", "stationName": "Bentley (Hants) Rail Station", "lat": "51.18123308303", "long": "-0.86812680436"}, {"atcoCode": "9100BNTFORD", "tiplocCode": "BNTFORD", "crsCode": "BFD", "stationName": "Brentford Rail Station", "lat": "51.48754690635", "long": "-0.30965091793"}, {"atcoCode": "9100BNTHAM", "tiplocCode": "BNTHAM", "crsCode": "BEN", "stationName": "Bentham Rail Station", "lat": "54.11551727945", "long": "-2.51067615135"}, {"atcoCode": "9100BNWK", "tiplocCode": "BNWK", "crsCode": "BRW", "stationName": "Brunswick Rail Station", "lat": "53.38324037885", "long": "-2.97607686688"}, {"atcoCode": "9100BODMNPW", "tiplocCode": "BODMNPW", "crsCode": "BOD", "stationName": "Bodmin Parkway Rail Station", "lat": "50.44586275658", "long": "-4.66292835108"}, {"atcoCode": "9100BODORGN", "tiplocCode": "BODORGN", "crsCode": "BOR", "stationName": "Bodorgan Rail Station", "lat": "53.20430193864", "long": "-4.41800318822"}, {"atcoCode": "9100BOGNORR", "tiplocCode": "BOGNORR", "crsCode": "BOG", "stationName": "Bognor Regis Rail Station", "lat": "50.78655905574", "long": "-0.67617820083"}, {"atcoCode": "9100BOGSTON", "tiplocCode": "BOGSTON", "crsCode": "BGS", "stationName": "Bogston Rail Station", "lat": "55.93704156552", "long": "-4.71140097637"}, {"atcoCode": "9100BOLTON", "tiplocCode": "BOLTON", "crsCode": "BON", "stationName": "Bolton Rail Station", "lat": "53.57414325233", "long": "-2.42582463782"}, {"atcoCode": "9100BOMO", "tiplocCode": "BOMO", "crsCode": "BMH", "stationName": "Bournemouth Rail Station", "lat": "50.72727332144", "long": "-1.86450294675"}, {"atcoCode": "9100BOOKHAM", "tiplocCode": "BOOKHAM", "crsCode": "BKA", "stationName": "Bookham Rail Station", "lat": "51.28873865847", "long": "-0.38402060641"}, {"atcoCode": "9100BOORCHY", "tiplocCode": "BOORCHY", "crsCode": "BRO", "stationName": "Bridge of Orchy Rail Station", "lat": "56.5158669878", "long": "-4.76299278027"}, {"atcoCode": "9100BOOTLE", "tiplocCode": "BOOTLE", "crsCode": "BOC", "stationName": "Bootle (Cumbria) Rail Station", "lat": "54.29130200795", "long": "-3.39386164194"}, {"atcoCode": "9100BOOTLNS", "tiplocCode": "BOOTLNS", "crsCode": "BNW", "stationName": "Bootle New Strand Rail Station", "lat": "53.45338857285", "long": "-2.99474724324"}, {"atcoCode": "9100BOOTLOR", "tiplocCode": "BOOTLOR", "crsCode": "BOT", "stationName": "Bootle Oriel Road Rail Station", "lat": "53.44662072206", "long": "-2.9957333951"}, {"atcoCode": "9100BORNEND", "tiplocCode": "BORNEND", "crsCode": "BNE", "stationName": "Bourne End Rail Station", "lat": "51.57711790146", "long": "-0.71047346012"}, {"atcoCode": "9100BORTH", "tiplocCode": "BORTH", "crsCode": "BRH", "stationName": "Borth Rail Station", "lat": "52.49102699728", "long": "-4.05017619082"}, {"atcoCode": "9100BORWGAW", "tiplocCode": "BORWGAW", "crsCode": "BRG", "stationName": "Borough Green & Wrotham Rail Station", "lat": "51.29321924328", "long": "0.30624506129"}, {"atcoCode": "9100BOSHAM", "tiplocCode": "BOSHAM", "crsCode": "BOH", "stationName": "Bosham Rail Station", "lat": "50.84274761945", "long": "-0.84743114151"}, {"atcoCode": "9100BOSTON", "tiplocCode": "BOSTON", "crsCode": "BSN", "stationName": "Boston Rail Station", "lat": "52.9780899418", "long": "-0.03100315227"}, {"atcoCode": "9100BOTESFD", "tiplocCode": "BOTESFD", "crsCode": "BTF", "stationName": "Bottesford Rail Station", "lat": "52.94461452172", "long": "-0.79484261942"}, {"atcoCode": "9100BOTLEY", "tiplocCode": "BOTLEY", "crsCode": "BOE", "stationName": "Botley Rail Station", "lat": "50.91645426939", "long": "-1.25923637574"}, {"atcoCode": "9100BOURNVL", "tiplocCode": "BOURNVL", "crsCode": "BRV", "stationName": "Bournville Rail Station", "lat": "52.42696311913", "long": "-1.9264238296"}, {"atcoCode": "9100BOWBRKH", "tiplocCode": "BOWBRKH", "crsCode": "BWB", "stationName": "Bow Brickhill Rail Station", "lat": "52.00430073159", "long": "-0.69607774698"}, {"atcoCode": "9100BOWESPK", "tiplocCode": "BOWESPK", "crsCode": "BOP", "stationName": "Bowes Park Rail Station", "lat": "51.60701187896", "long": "-0.12058187383"}, {"atcoCode": "9100BOWLING", "tiplocCode": "BOWLING", "crsCode": "BWG", "stationName": "Bowling Rail Station", "lat": "55.93107940601", "long": "-4.49384152578"}, {"atcoCode": "9100BOXHAWH", "tiplocCode": "BOXHAWH", "crsCode": "BXW", "stationName": "Box Hill & Westhumble Rail Station", "lat": "51.25401185327", "long": "-0.32848987487"}, {"atcoCode": "9100BRACKNL", "tiplocCode": "BRACKNL", "crsCode": "BCE", "stationName": "Bracknell Rail Station", "lat": "51.41309188829", "long": "-0.75170356103"}, {"atcoCode": "9100BRADFS", "tiplocCode": "BRADFS", "crsCode": "BDQ", "stationName": "Bradford Forster Square Rail Station", "lat": "53.79692441269", "long": "-1.7529615389"}, {"atcoCode": "9100BRADIN", "tiplocCode": "BRADIN", "crsCode": "BDI", "stationName": "Bradford Interchange Rail Station", "lat": "53.7910752487", "long": "-1.74959570123"}, {"atcoCode": "9100BRAINFP", "tiplocCode": "BRAINFP", "crsCode": "BTP", "stationName": "Braintree Freeport Rail Station", "lat": "51.86941613819", "long": "0.56843481453"}, {"atcoCode": "9100BRAINTR", "tiplocCode": "BRAINTR", "crsCode": "BTR", "stationName": "Braintree Rail Station", "lat": "51.87539168378", "long": "0.55668710811"}, {"atcoCode": "9100BRAMPTN", "tiplocCode": "BRAMPTN", "crsCode": "BRP", "stationName": "Brampton (Suffolk) Rail Station", "lat": "52.39543504347", "long": "1.54381076638"}, {"atcoCode": "9100BRANKSM", "tiplocCode": "BRANKSM", "crsCode": "BSM", "stationName": "Branksome Rail Station", "lat": "50.72696460406", "long": "-1.91975819978"}, {"atcoCode": "9100BRBM", "tiplocCode": "BRBM", "crsCode": "BDB", "stationName": "Broadbottom Rail Station", "lat": "53.44097376628", "long": "-2.01652076989"}, {"atcoCode": "9100BRBY", "tiplocCode": "BRBY", "crsCode": "BSY", "stationName": "Brondesbury Rail Station", "lat": "51.5451656923", "long": "-0.20230865493"}, {"atcoCode": "9100BRBYPK", "tiplocCode": "BRBYPK", "crsCode": "BSP", "stationName": "Brondesbury Park Rail Station", "lat": "51.54069912107", "long": "-0.21012758605"}, {"atcoCode": "9100BRDFDOA", "tiplocCode": "BRDFDOA", "crsCode": "BOA", "stationName": "Bradford-on-Avon Rail Station", "lat": "51.34491417881", "long": "-2.25232664173"}, {"atcoCode": "9100BRDGWTR", "tiplocCode": "BRDGWTR", "crsCode": "BWT", "stationName": "Bridgwater Rail Station", "lat": "51.12785633979", "long": "-2.9904054773"}, {"atcoCode": "9100BRDING", "tiplocCode": "BRDING", "crsCode": "BDN", "stationName": "Brading Rail Station", "lat": "50.67837192899", "long": "-1.13872233248"}, {"atcoCode": "9100BRDLNGT", "tiplocCode": "BRDLNGT", "crsCode": "BDT", "stationName": "Bridlington Rail Station", "lat": "54.08413126708", "long": "-0.1987203099"}, {"atcoCode": "9100BRDNML", "tiplocCode": "BRDNML", "crsCode": "BLL", "stationName": "Bardon Mill Rail Station", "lat": "54.97449361588", "long": "-2.34650443635"}, {"atcoCode": "9100BRDS", "tiplocCode": "BRDS", "crsCode": "BBS", "stationName": "Bordesley Rail Station", "lat": "52.47187299411", "long": "-1.87776863413"}, {"atcoCode": "9100BREDBRY", "tiplocCode": "BREDBRY", "crsCode": "BDY", "stationName": "Bredbury Rail Station", "lat": "53.42315332003", "long": "-2.11048803686"}, {"atcoCode": "9100BREICH", "tiplocCode": "BREICH", "crsCode": "BRC", "stationName": "Breich Rail Station", "lat": "55.8273122529", "long": "-3.66812513594"}, {"atcoCode": "9100BRFRY", "tiplocCode": "BRFRY", "crsCode": "BYF", "stationName": "Broughty Ferry Rail Station", "lat": "56.46716024792", "long": "-2.8731522977"}, {"atcoCode": "9100BRFT", "tiplocCode": "BRFT", "crsCode": "BMF", "stationName": "Broomfleet Rail Station", "lat": "53.74020822243", "long": "-0.67182831364"}, {"atcoCode": "9100BRGDDIE", "tiplocCode": "BRGDDIE", "crsCode": "BGI", "stationName": "Bargeddie Rail Station", "lat": "55.8512912908", "long": "-4.07380735225"}, {"atcoCode": "9100BRGEND", "tiplocCode": "BRGEND", "crsCode": "BGN", "stationName": "Bridgend Rail Station", "lat": "51.50697351056", "long": "-3.57527568317"}, {"atcoCode": "9100BRGG", "tiplocCode": "BRGG", "crsCode": "BGG", "stationName": "Brigg Rail Station", "lat": "53.54914509776", "long": "-0.48612467657"}, {"atcoCode": "9100BRGHLRD", "tiplocCode": "BRGHLRD", "crsCode": "LRB", "stationName": "London Road (Brighton) Rail Station", "lat": "50.83666292105", "long": "-0.1365022651"}, {"atcoCode": "9100BRGHTN", "tiplocCode": "BRGHTN", "crsCode": "BTN", "stationName": "Brighton Rail Station", "lat": "50.82900477107", "long": "-0.14128028305"}, {"atcoCode": "9100BRHD", "tiplocCode": "BRHD", "crsCode": "BRR", "stationName": "Barrhead Rail Station", "lat": "55.80375299006", "long": "-4.39728326663"}, {"atcoCode": "9100BRHM", "tiplocCode": "BRHM", "crsCode": "BAA", "stationName": "Barnham Rail Station", "lat": "50.83090652593", "long": "-0.63967987064"}, {"atcoCode": "9100BRHOUSE", "tiplocCode": "BRHOUSE", "crsCode": "BGH", "stationName": "Brighouse Rail Station", "lat": "53.69819729483", "long": "-1.77943883658"}, {"atcoCode": "9100BRIDGTN", "tiplocCode": "BRIDGTN", "crsCode": "BDG", "stationName": "Bridgeton Rail Station", "lat": "55.8489625955", "long": "-4.22605627862"}, {"atcoCode": "9100BRIERFL", "tiplocCode": "BRIERFL", "crsCode": "BRF", "stationName": "Brierfield Rail Station", "lat": "53.82398039818", "long": "-2.23648991236"}, {"atcoCode": "9100BRIMSDN", "tiplocCode": "BRIMSDN", "crsCode": "BMD", "stationName": "Brimsdown Rail Station", "lat": "51.65558336605", "long": "-0.03081734996"}, {"atcoCode": "9100BRITFRY", "tiplocCode": "BRITFRY", "crsCode": "BNF", "stationName": "Briton Ferry Rail Station", "lat": "51.6378959702", "long": "-3.81925224618"}, {"atcoCode": "9100BRITHDR", "tiplocCode": "BRITHDR", "crsCode": "BHD", "stationName": "Brithdir Rail Station", "lat": "51.7103024867", "long": "-3.22872020561"}, {"atcoCode": "9100BRIXTON", "tiplocCode": "BRIXTON", "crsCode": "BRX", "stationName": "Brixton Rail Station", "lat": "51.46329892555", "long": "-0.11418339852"}, {"atcoCode": "9100BRKMNPK", "tiplocCode": "BRKMNPK", "crsCode": "BPK", "stationName": "Brookmans Park Rail Station", "lat": "51.72106176439", "long": "-0.20454864997"}, {"atcoCode": "9100BRKNCPK", "tiplocCode": "BRKNCPK", "crsCode": "CNP", "stationName": "Conway Park Rail Station", "lat": "53.39335835082", "long": "-3.02267078544"}, {"atcoCode": "9100BRKNHDC", "tiplocCode": "BRKNHDC", "crsCode": "BKC", "stationName": "Birkenhead Central Rail Station", "lat": "53.38831339142", "long": "-3.02082065372"}, {"atcoCode": "9100BRKNHDN", "tiplocCode": "BRKNHDN", "crsCode": "BKN", "stationName": "Birkenhead North Rail Station", "lat": "53.40443464169", "long": "-3.05753314281"}, {"atcoCode": "9100BRKNHDP", "tiplocCode": "BRKNHDP", "crsCode": "BKP", "stationName": "Birkenhead Park Rail Station", "lat": "53.39740532129", "long": "-3.0391007784"}, {"atcoCode": "9100BRKWOOD", "tiplocCode": "BRKWOOD", "crsCode": "BKO", "stationName": "Brookwood Rail Station", "lat": "51.30375792694", "long": "-0.63574781605"}, {"atcoCode": "9100BRLANDS", "tiplocCode": "BRLANDS", "crsCode": "BRS", "stationName": "Berrylands Rail Station", "lat": "51.39904518396", "long": "-0.28071358953"}, {"atcoCode": "9100BRLEYPK", "tiplocCode": "BRLEYPK", "crsCode": "BUY", "stationName": "Burley Park Rail Station", "lat": "53.8120301786", "long": "-1.57776751798"}, {"atcoCode": "9100BRMB", "tiplocCode": "BRMB", "crsCode": "BOM", "stationName": "Bromborough Rail Station", "lat": "53.32184635744", "long": "-2.98689536144"}, {"atcoCode": "9100BRMBRK", "tiplocCode": "BRMBRK", "crsCode": "BMR", "stationName": "Bromborough Rake Rail Station", "lat": "53.32990619305", "long": "-2.98946892637"}, {"atcoCode": "9100BRMCRSS", "tiplocCode": "BRMCRSS", "crsCode": "BMC", "stationName": "Bromley Cross Rail Station", "lat": "53.61404075006", "long": "-2.41089878029"}, {"atcoCode": "9100BRMLYSR", "tiplocCode": "BRMLYSR", "crsCode": "BLE", "stationName": "Bramley (West Yorks) Rail Station", "lat": "53.80534873272", "long": "-1.63720617396"}, {"atcoCode": "9100BRMOUTH", "tiplocCode": "BRMOUTH", "crsCode": "BRM", "stationName": "Barmouth Rail Station", "lat": "52.72289056744", "long": "-4.05659575006"}, {"atcoCode": "9100BRMPTNC", "tiplocCode": "BRMPTNC", "crsCode": "BMP", "stationName": "Brampton (Cumbria) Rail Station", "lat": "54.93239027981", "long": "-2.7029471921"}, {"atcoCode": "9100BRMSGRV", "tiplocCode": "BRMSGRV", "crsCode": "BMV", "stationName": "Bromsgrove Rail Station", "lat": "52.32060414512", "long": "-2.04977859201"}, {"atcoCode": "9100BRNCHTN", "tiplocCode": "BRNCHTN", "crsCode": "BCN", "stationName": "Branchton Rail Station", "lat": "55.94059564078", "long": "-4.8035481115"}, {"atcoCode": "9100BRNGTN", "tiplocCode": "BRNGTN", "crsCode": "BNT", "stationName": "Brinnington Rail Station", "lat": "53.4321164629", "long": "-2.13511987886"}, {"atcoCode": "9100BRNHRST", "tiplocCode": "BRNHRST", "crsCode": "BNH", "stationName": "Barnehurst Rail Station", "lat": "51.46495912931", "long": "0.15964630799"}, {"atcoCode": "9100BRNMONC", "tiplocCode": "BRNMONC", "crsCode": "BUU", "stationName": "Burnham-on-Crouch Rail Station", "lat": "51.63365782506", "long": "0.81402793935"}, {"atcoCode": "9100BRNSTPL", "tiplocCode": "BRNSTPL", "crsCode": "BNP", "stationName": "Barnstaple Rail Station", "lat": "51.07396953324", "long": "-4.06311685349"}, {"atcoCode": "9100BRNYARM", "tiplocCode": "BRNYARM", "crsCode": "BYA", "stationName": "Berney Arms Rail Station", "lat": "52.58978716074", "long": "1.63037565597"}, {"atcoCode": "9100BROADGR", "tiplocCode": "BROADGR", "crsCode": "BGE", "stationName": "Broad Green Rail Station", "lat": "53.40650328883", "long": "-2.89348391276"}, {"atcoCode": "9100BROCKLY", "tiplocCode": "BROCKLY", "crsCode": "BCY", "stationName": "Brockley Rail Station", "lat": "51.46464884615", "long": "-0.03753660945"}, {"atcoCode": "9100BROMLYN", "tiplocCode": "BROMLYN", "crsCode": "BMN", "stationName": "Bromley North Rail Station", "lat": "51.40832772238", "long": "0.01699272077"}, {"atcoCode": "9100BROMLYS", "tiplocCode": "BROMLYS", "crsCode": "BMS", "stationName": "Bromley South Rail Station", "lat": "51.39997631561", "long": "0.01734411348"}, {"atcoCode": "9100BROOME", "tiplocCode": "BROOME", "crsCode": "BME", "stationName": "Broome Rail Station", "lat": "52.42277157928", "long": "-2.88520749901"}, {"atcoCode": "9100BRORA", "tiplocCode": "BRORA", "crsCode": "BRA", "stationName": "Brora Rail Station", "lat": "58.01295022404", "long": "-3.85228286576"}, {"atcoCode": "9100BROUGH", "tiplocCode": "BROUGH", "crsCode": "BUH", "stationName": "Brough Rail Station", "lat": "53.72696040996", "long": "-0.57872415332"}, {"atcoCode": "9100BROXBRN", "tiplocCode": "BROXBRN", "crsCode": "BXB", "stationName": "Broxbourne Rail Station", "lat": "51.74691039715", "long": "-0.01108663946"}, {"atcoCode": "9100BRRHL", "tiplocCode": "BRRHL", "crsCode": "BRL", "stationName": "Barrhill Rail Station", "lat": "55.0970046483", "long": "-4.7817810548"}, {"atcoCode": "9100BRRYLNK", "tiplocCode": "BRRYLNK", "crsCode": "BYL", "stationName": "Barry Links Rail Station", "lat": "56.49314888468", "long": "-2.74544172418"}, {"atcoCode": "9100BRSCGHB", "tiplocCode": "BRSCGHB", "crsCode": "BCB", "stationName": "Burscough Bridge Rail Station", "lat": "53.60525655804", "long": "-2.84087983477"}, {"atcoCode": "9100BRSCGHJ", "tiplocCode": "BRSCGHJ", "crsCode": "BCJ", "stationName": "Burscough Junction Rail Station", "lat": "53.59751935732", "long": "-2.8406052465"}, {"atcoCode": "9100BRSDE", "tiplocCode": "BRSDE", "crsCode": "BUI", "stationName": "Burnside (Strathclyde) Rail Station", "lat": "55.81692628016", "long": "-4.20238937676"}, {"atcoCode": "9100BRSR", "tiplocCode": "BRSR", "crsCode": "BSR", "stationName": "Broadstairs Rail Station", "lat": "51.36067475347", "long": "1.43356069938"}, {"atcoCode": "9100BRSTLTM", "tiplocCode": "BRSTLTM", "crsCode": "BRI", "stationName": "Bristol Temple Meads Rail Station", "lat": "51.44914390068", "long": "-2.58131524969"}, {"atcoCode": "9100BRSTPWY", "tiplocCode": "BRSTPWY", "crsCode": "BPW", "stationName": "Bristol Parkway Rail Station", "lat": "51.51380121061", "long": "-2.54216306394"}, {"atcoCode": "9100BRTHMBR", "tiplocCode": "BRTHMBR", "crsCode": "BAU", "stationName": "Barton-on-Humber Rail Station", "lat": "53.68891863124", "long": "-0.44343665567"}, {"atcoCode": "9100BRTJYC", "tiplocCode": "BRTJYC", "crsCode": "BUJ", "stationName": "Burton Joyce Rail Station", "lat": "52.98344184034", "long": "-1.04087750627"}, {"atcoCode": "9100BRTWOOD", "tiplocCode": "BRTWOOD", "crsCode": "BRE", "stationName": "Brentwood Rail Station", "lat": "51.61360524407", "long": "0.29958588082"}, {"atcoCode": "9100BRUCGRV", "tiplocCode": "BRUCGRV", "crsCode": "BCV", "stationName": "Bruce Grove Rail Station", "lat": "51.59395912272", "long": "-0.06986698816"}, {"atcoCode": "9100BRUNDAL", "tiplocCode": "BRUNDAL", "crsCode": "BDA", "stationName": "Brundall Rail Station", "lat": "52.61948351405", "long": "1.43929896138"}, {"atcoCode": "9100BRUNDLG", "tiplocCode": "BRUNDLG", "crsCode": "BGA", "stationName": "Brundall Gardens Rail Station", "lat": "52.62344330976", "long": "1.41841639227"}, {"atcoCode": "9100BRUSTAN", "tiplocCode": "BRUSTAN", "crsCode": "BSU", "stationName": "Brunstane Rail Station", "lat": "55.94251073499", "long": "-3.10098600925"}, {"atcoCode": "9100BRUTON", "tiplocCode": "BRUTON", "crsCode": "BRU", "stationName": "Bruton Rail Station", "lat": "51.11163892514", "long": "-2.44707347109"}, {"atcoCode": "9100BRWCKUT", "tiplocCode": "BRWCKUT", "crsCode": "BWK", "stationName": "Berwick-upon-Tweed Rail Station", "lat": "55.77433724723", "long": "-2.01097332759"}, {"atcoCode": "9100BRWHINS", "tiplocCode": "BRWHINS", "crsCode": "BNR", "stationName": "Brockley Whins Rail Station", "lat": "54.95954405686", "long": "-1.46135324951"}, {"atcoCode": "9100BRYN", "tiplocCode": "BRYN", "crsCode": "BYN", "stationName": "Bryn Rail Station", "lat": "53.49986652918", "long": "-2.64721360036"}, {"atcoCode": "9100BRYSTNS", "tiplocCode": "BRYSTNS", "crsCode": "BYS", "stationName": "Braystones Rail Station", "lat": "54.43935999805", "long": "-3.54182575496"}, {"atcoCode": "9100BSAUKLD", "tiplocCode": "BSAUKLD", "crsCode": "BIA", "stationName": "Bishop Auckland Rail Station", "lat": "54.6571952683", "long": "-1.6777149104"}, {"atcoCode": "9100BSAUWEA", "tiplocCode": "BSAUWEA", "crsCode": "BIA", "stationName": "Bishop Auckland Rail Station", "lat": "54.65711657664", "long": "-1.68194714193"}, {"atcoCode": "9100BSCTSTA", "tiplocCode": "BSCTSTA", "crsCode": "BSC", "stationName": "Bescot Stadium Rail Station", "lat": "52.56309313612", "long": "-1.9911054766"}, {"atcoCode": "9100BSDN", "tiplocCode": "BSDN", "crsCode": "BRN", "stationName": "Bearsden Rail Station", "lat": "55.91712933401", "long": "-4.33202012839"}, {"atcoCode": "9100BSHB", "tiplocCode": "BSHB", "crsCode": "BBG", "stationName": "Bishopbriggs Rail Station", "lat": "55.90387809362", "long": "-4.22491474935"}, {"atcoCode": "9100BSHPSFD", "tiplocCode": "BSHPSFD", "crsCode": "BIS", "stationName": "Bishops Stortford Rail Station", "lat": "51.86669138211", "long": "0.16489419614"}, {"atcoCode": "9100BSNGSTK", "tiplocCode": "BSNGSTK", "crsCode": "BSK", "stationName": "Basingstoke Rail Station", "lat": "51.26835691303", "long": "-1.08726371896"}, {"atcoCode": "9100BSPSLYD", "tiplocCode": "BSPSLYD", "crsCode": "BIB", "stationName": "Bishop's Lydeard", "lat": "51.05458641664", "long": "-3.19432975928"}, {"atcoCode": "9100BSSN", "tiplocCode": "BSSN", "crsCode": "BIP", "stationName": "Bishopstone Rail Station", "lat": "50.7801435316", "long": "0.08275700866"}, {"atcoCode": "9100BSTD", "tiplocCode": "BSTD", "crsCode": "BSD", "stationName": "Bearsted Rail Station", "lat": "51.27582146224", "long": "0.57758048241"}, {"atcoCode": "9100BSTEDMS", "tiplocCode": "BSTEDMS", "crsCode": "BSE", "stationName": "Bury St Edmunds Rail Station", "lat": "52.25376334229", "long": "0.71330680091"}, {"atcoCode": "9100BTCHWTH", "tiplocCode": "BTCHWTH", "crsCode": "BTO", "stationName": "Betchworth Rail Station", "lat": "51.24818920838", "long": "-0.26697293695"}, {"atcoCode": "9100BTHGATE", "tiplocCode": "BTHGATE", "crsCode": "BHG", "stationName": "Bathgate Rail Station", "lat": "55.89715220401", "long": "-3.636096071"}, {"atcoCode": "9100BTHNLGR", "tiplocCode": "BTHNLGR", "crsCode": "BET", "stationName": "Bethnal Green Rail Station", "lat": "51.52391726889", "long": "-0.05956796403"}, {"atcoCode": "9100BTLRSLA", "tiplocCode": "BTLRSLA", "crsCode": "BUL", "stationName": "Butlers Lane Rail Station", "lat": "52.59246962124", "long": "-1.83802010484"}, {"atcoCode": "9100BTLSBDG", "tiplocCode": "BTLSBDG", "crsCode": "BLB", "stationName": "Battlesbridge Rail Station", "lat": "51.62482540254", "long": "0.56528563473"}, {"atcoCode": "9100BTLYSY", "tiplocCode": "BTLYSY", "crsCode": "BYK", "stationName": "Bentley (S Yorks) Rail Station", "lat": "53.54393639696", "long": "-1.15094847577"}, {"atcoCode": "9100BTRSBY", "tiplocCode": "BTRSBY", "crsCode": "BTT", "stationName": "Battersby Rail Station", "lat": "54.45767999533", "long": "-1.09297174857"}, {"atcoCode": "9100BUCKNHM", "tiplocCode": "BUCKNHM", "crsCode": "BUC", "stationName": "Buckenham Rail Station", "lat": "52.59773841295", "long": "1.47032550704"}, {"atcoCode": "9100BUGLE", "tiplocCode": "BUGLE", "crsCode": "BGL", "stationName": "Bugle Rail Station", "lat": "50.40034870413", "long": "-4.79210020003"}, {"atcoCode": "9100BUILTHR", "tiplocCode": "BUILTHR", "crsCode": "BHR", "stationName": "Builth Road Rail Station", "lat": "52.16932219374", "long": "-3.42703258703"}, {"atcoCode": "9100BULWELL", "tiplocCode": "BULWELL", "crsCode": "BLW", "stationName": "Bulwell Rail Station", "lat": "52.99969548849", "long": "-1.19623043989"}, {"atcoCode": "9100BURES", "tiplocCode": "BURES", "crsCode": "BUE", "stationName": "Bures Rail Station", "lat": "51.97116199239", "long": "0.76914393197"}, {"atcoCode": "9100BURGESH", "tiplocCode": "BURGESH", "crsCode": "BUG", "stationName": "Burgess Hill Rail Station", "lat": "50.95365611638", "long": "-0.12741277277"}, {"atcoCode": "9100BURLYIW", "tiplocCode": "BURLYIW", "crsCode": "BUW", "stationName": "Burley-in-Wharfedale Rail Station", "lat": "53.90815048748", "long": "-1.75337191602"}, {"atcoCode": "9100BURNLYB", "tiplocCode": "BURNLYB", "crsCode": "BUB", "stationName": "Burnley Barracks Rail Station", "lat": "53.79087809011", "long": "-2.25808570994"}, {"atcoCode": "9100BURNLYC", "tiplocCode": "BURNLYC", "crsCode": "BNC", "stationName": "Burnley Central Rail Station", "lat": "53.79351214201", "long": "-2.24497101878"}, {"atcoCode": "9100BURNMR", "tiplocCode": "BURNMR", "crsCode": "BYM", "stationName": "Burnley Manchester Road Rail Station", "lat": "53.78496551788", "long": "-2.24886723007"}, {"atcoCode": "9100BURSLDN", "tiplocCode": "BURSLDN", "crsCode": "BUO", "stationName": "Bursledon Rail Station", "lat": "50.88368819166", "long": "-1.30503222559"}, {"atcoCode": "9100BURTNOT", "tiplocCode": "BURTNOT", "crsCode": "BUT", "stationName": "Burton-on-Trent Rail Station", "lat": "52.80581549715", "long": "-1.64245979101"}, {"atcoCode": "9100BUSBY", "tiplocCode": "BUSBY", "crsCode": "BUS", "stationName": "Busby Rail Station", "lat": "55.78033939106", "long": "-4.26220074769"}, {"atcoCode": "9100BUSHEY", "tiplocCode": "BUSHEY", "crsCode": "BSH", "stationName": "Bushey Rail Station", "lat": "51.64558157546", "long": "-0.38474907806"}, {"atcoCode": "9100BUSHYDC", "tiplocCode": "BUSHYDC", "crsCode": "BSH", "stationName": "Bushey Rail Station", "lat": "51.64575130051", "long": "-0.3853211909"}, {"atcoCode": "9100BUXTON", "tiplocCode": "BUXTON", "crsCode": "BUX", "stationName": "Buxton Rail Station", "lat": "53.2607212488", "long": "-1.91286336282"}, {"atcoCode": "9100BXLYHTH", "tiplocCode": "BXLYHTH", "crsCode": "BXH", "stationName": "Bexleyheath Rail Station", "lat": "51.4635001507", "long": "0.13373496165"}, {"atcoCode": "9100BXTD", "tiplocCode": "BXTD", "crsCode": "BXD", "stationName": "Buxted Rail Station", "lat": "50.99001278015", "long": "0.13143901164"}, {"atcoCode": "9100BYFLANH", "tiplocCode": "BYFLANH", "crsCode": "BFN", "stationName": "Byfleet & New Haw Rail Station", "lat": "51.34979664729", "long": "-0.48138968791"}, {"atcoCode": "9100BYNEA", "tiplocCode": "BYNEA", "crsCode": "BYE", "stationName": "Bynea Rail Station", "lat": "51.67203170195", "long": "-4.09888073461"}, {"atcoCode": "9100CADOXTN", "tiplocCode": "CADOXTN", "crsCode": "CAD", "stationName": "Cadoxton Rail Station", "lat": "51.41227956097", "long": "-3.24889536372"}, {"atcoCode": "9100CAERGWL", "tiplocCode": "CAERGWL", "crsCode": "CGW", "stationName": "Caergwrle Rail Station", "lat": "53.10786315263", "long": "-3.03291276566"}, {"atcoCode": "9100CALSTCK", "tiplocCode": "CALSTCK", "crsCode": "CSK", "stationName": "Calstock Rail Station", "lat": "50.49779718872", "long": "-4.20898753744"}, {"atcoCode": "9100CAMBDGE", "tiplocCode": "CAMBDGE", "crsCode": "CBG", "stationName": "Cambridge Rail Station", "lat": "52.19406726687", "long": "0.13745655272"}, {"atcoCode": "9100CAMBNTH", "tiplocCode": "CAMBNTH", "crsCode": "CMB", "stationName": "Cambridge North Rail Station", "lat": "52.22448192767", "long": "0.15847881449"}, {"atcoCode": "9100CAMELON", "tiplocCode": "CAMELON", "crsCode": "CMO", "stationName": "Camelon Rail Station", "lat": "56.00609156743", "long": "-3.8176051635"}, {"atcoCode": "9100CAMHTH", "tiplocCode": "CAMHTH", "crsCode": "CBH", "stationName": "Cambridge Heath (London) Rail Station", "lat": "51.5319727046", "long": "-0.05727898412"}, {"atcoCode": "9100CANLEY", "tiplocCode": "CANLEY", "crsCode": "CNL", "stationName": "Canley Rail Station", "lat": "52.39924091257", "long": "-1.54757470481"}, {"atcoCode": "9100CANONST", "tiplocCode": "CANONST", "crsCode": "CST", "stationName": "London Cannon Street Rail Station", "lat": "51.51138232145", "long": "-0.09029289895"}, {"atcoCode": "9100CARBISB", "tiplocCode": "CARBISB", "crsCode": "CBB", "stationName": "Carbis Bay Rail Station", "lat": "50.19704955618", "long": "-5.46326305166"}, {"atcoCode": "9100CARDFBR", "tiplocCode": "CARDFBR", "crsCode": "CDB", "stationName": "Cardiff Bay Rail Station", "lat": "51.46710855963", "long": "-3.16640289331"}, {"atcoCode": "9100CARDFQS", "tiplocCode": "CARDFQS", "crsCode": "CDQ", "stationName": "Cardiff Queen Street Rail Station", "lat": "51.48196153284", "long": "-3.17018055435"}, {"atcoCode": "9100CARFIN", "tiplocCode": "CARFIN", "crsCode": "CRF", "stationName": "Carfin Rail Station", "lat": "55.8073390696", "long": "-3.95625367302"}, {"atcoCode": "9100CARK", "tiplocCode": "CARK", "crsCode": "CAK", "stationName": "Cark Rail Station", "lat": "54.17795478269", "long": "-2.97406361038"}, {"atcoCode": "9100CARLILE", "tiplocCode": "CARLILE", "crsCode": "CAR", "stationName": "Carlisle Rail Station", "lat": "54.89065183693", "long": "-2.93319163297"}, {"atcoCode": "9100CARMYLE", "tiplocCode": "CARMYLE", "crsCode": "CML", "stationName": "Carmyle Rail Station", "lat": "55.83433678265", "long": "-4.15818019274"}, {"atcoCode": "9100CARRBDG", "tiplocCode": "CARRBDG", "crsCode": "CAG", "stationName": "Carrbridge Rail Station", "lat": "57.27950132933", "long": "-3.82820281431"}, {"atcoCode": "9100CARSWS", "tiplocCode": "CARSWS", "crsCode": "CWS", "stationName": "Caersws Rail Station", "lat": "52.5161240085", "long": "-3.43249814791"}, {"atcoCode": "9100CASTLFD", "tiplocCode": "CASTLFD", "crsCode": "CFD", "stationName": "Castleford Rail Station", "lat": "53.72407721634", "long": "-1.35465259492"}, {"atcoCode": "9100CATERHM", "tiplocCode": "CATERHM", "crsCode": "CAT", "stationName": "Caterham Rail Station", "lat": "51.28214149381", "long": "-0.07830704056"}, {"atcoCode": "9100CATFBDG", "tiplocCode": "CATFBDG", "crsCode": "CFB", "stationName": "Catford Bridge Rail Station", "lat": "51.44474073785", "long": "-0.02479109322"}, {"atcoCode": "9100CATFORD", "tiplocCode": "CATFORD", "crsCode": "CTF", "stationName": "Catford Rail Station", "lat": "51.44440672326", "long": "-0.02631651466"}, {"atcoCode": "9100CATHAYS", "tiplocCode": "CATHAYS", "crsCode": "CYS", "stationName": "Cathays Rail Station", "lat": "51.48889904069", "long": "-3.17868332738"}, {"atcoCode": "9100CATTAL", "tiplocCode": "CATTAL", "crsCode": "CTL", "stationName": "Cattal Rail Station", "lat": "53.99744004826", "long": "-1.32053499843"}, {"atcoCode": "9100CAUSLND", "tiplocCode": "CAUSLND", "crsCode": "CAU", "stationName": "Causeland Rail Station", "lat": "50.40569031995", "long": "-4.4664478437"}, {"atcoCode": "9100CBARPAR", "tiplocCode": "CBARPAR", "crsCode": "CBP", "stationName": "Castle Bar Park Rail Station", "lat": "51.52293050144", "long": "-0.33154886226"}, {"atcoCode": "9100CBAY", "tiplocCode": "CBAY", "crsCode": "CWB", "stationName": "Colwyn Bay Rail Station", "lat": "53.29635884135", "long": "-3.72541657289"}, {"atcoCode": "9100CBGH", "tiplocCode": "CBGH", "crsCode": "COH", "stationName": "Crowborough Rail Station", "lat": "51.04638156486", "long": "0.18801250436"}, {"atcoCode": "9100CBHMSDA", "tiplocCode": "CBHMSDA", "crsCode": "CSD", "stationName": "Cobham & Stoke d'Abernon Rail Station", "lat": "51.31810073777", "long": "-0.38934629501"}, {"atcoCode": "9100CBORNE", "tiplocCode": "CBORNE", "crsCode": "CBN", "stationName": "Camborne Rail Station", "lat": "50.21043624691", "long": "-5.29741079827"}, {"atcoCode": "9100CBRK", "tiplocCode": "CBRK", "crsCode": "CBK", "stationName": "Cranbrook Rail Station", "lat": "50.75009135488", "long": "-3.42041535097"}, {"atcoCode": "9100CCARY", "tiplocCode": "CCARY", "crsCode": "CLC", "stationName": "Castle Cary Rail Station", "lat": "51.09981478666", "long": "-2.52279433401"}, {"atcoCode": "9100CCRT", "tiplocCode": "CCRT", "crsCode": "CCT", "stationName": "Cathcart Rail Station", "lat": "55.81766834046", "long": "-4.26053606916"}, {"atcoCode": "9100CDCOT", "tiplocCode": "CDCOT", "crsCode": "CDT", "stationName": "Caldicot Rail Station", "lat": "51.58479024633", "long": "-2.76057347882"}, {"atcoCode": "9100CDND", "tiplocCode": "CDND", "crsCode": "CDD", "stationName": "Cardenden Rail Station", "lat": "56.14125541526", "long": "-3.26164187607"}, {"atcoCode": "9100CDNL", "tiplocCode": "CDNL", "crsCode": "CDO", "stationName": "Cardonald Rail Station", "lat": "55.85256840487", "long": "-4.3406924604"}, {"atcoCode": "9100CDRS", "tiplocCode": "CDRS", "crsCode": "CDR", "stationName": "Cardross Rail Station", "lat": "55.96037865007", "long": "-4.65307320297"}, {"atcoCode": "9100CEFNYBD", "tiplocCode": "CEFNYBD", "crsCode": "CYB", "stationName": "Cefn-y-Bedd Rail Station", "lat": "53.09879997593", "long": "-3.03105272941"}, {"atcoCode": "9100CFFT", "tiplocCode": "CFFT", "crsCode": "CFF", "stationName": "Croftfoot Rail Station", "lat": "55.81825641114", "long": "-4.22832464295"}, {"atcoCode": "9100CFLATTS", "tiplocCode": "CFLATTS", "crsCode": "CFL", "stationName": "Crossflatts Rail Station", "lat": "53.85846581989", "long": "-1.84488597753"}, {"atcoCode": "9100CFPK", "tiplocCode": "CFPK", "crsCode": "CFT", "stationName": "Crofton Park Rail Station", "lat": "51.4551892025", "long": "-0.03650296237"}, {"atcoCode": "9100CHADHDD", "tiplocCode": "CHADHDD", "crsCode": "CFH", "stationName": "Chafford Hundred Rail Station", "lat": "51.4855572378", "long": "0.28744702092"}, {"atcoCode": "9100CHAPLTN", "tiplocCode": "CHAPLTN", "crsCode": "CPN", "stationName": "Chapelton (Devon) Rail Station", "lat": "51.01653521996", "long": "-4.02472188316"}, {"atcoCode": "9100CHARTHM", "tiplocCode": "CHARTHM", "crsCode": "CRT", "stationName": "Chartham Rail Station", "lat": "51.25726586754", "long": "1.01803940064"}, {"atcoCode": "9100CHASNRD", "tiplocCode": "CHASNRD", "crsCode": "CSR", "stationName": "Chassen Road Rail Station", "lat": "53.44615929591", "long": "-2.36823287186"}, {"atcoCode": "9100CHATHAM", "tiplocCode": "CHATHAM", "crsCode": "CTM", "stationName": "Chatham Rail Station", "lat": "51.3803785894", "long": "0.52115082745"}, {"atcoCode": "9100CHBURY", "tiplocCode": "CHBURY", "crsCode": "CBY", "stationName": "Charlbury Rail Station", "lat": "51.8724275375", "long": "-1.48969377191"}, {"atcoCode": "9100CHCHSTR", "tiplocCode": "CHCHSTR", "crsCode": "CCH", "stationName": "Chichester Rail Station", "lat": "50.8320534304", "long": "-0.78174886249"}, {"atcoCode": "9100CHDH", "tiplocCode": "CHDH", "crsCode": "CHU", "stationName": "Cheadle Hulme Rail Station", "lat": "53.37592874248", "long": "-2.18830269982"}, {"atcoCode": "9100CHDNGTN", "tiplocCode": "CHDNGTN", "crsCode": "CED", "stationName": "Cheddington Rail Station", "lat": "51.85791824384", "long": "-0.66215178661"}, {"atcoCode": "9100CHDWLHT", "tiplocCode": "CHDWLHT", "crsCode": "CTH", "stationName": "Chadwell Heath Rail Station", "lat": "51.56803876136", "long": "0.128958453"}, {"atcoCode": "9100CHEAM", "tiplocCode": "CHEAM", "crsCode": "CHE", "stationName": "Cheam Rail Station", "lat": "51.35547891926", "long": "-0.21416744438"}, {"atcoCode": "9100CHEF", "tiplocCode": "CHEF", "crsCode": "CEF", "stationName": "Chapel-en-le-Frith Rail Station", "lat": "53.31223083", "long": "-1.91876237999"}, {"atcoCode": "9100CHELFD", "tiplocCode": "CHELFD", "crsCode": "CEL", "stationName": "Chelford Rail Station", "lat": "53.27030983727", "long": "-2.28057700632"}, {"atcoCode": "9100CHEPSTW", "tiplocCode": "CHEPSTW", "crsCode": "CPW", "stationName": "Chepstow Rail Station", "lat": "51.6401792332", "long": "-2.67190520826"}, {"atcoCode": "9100CHESHNT", "tiplocCode": "CHESHNT", "crsCode": "CHN", "stationName": "Cheshunt Rail Station", "lat": "51.70287618878", "long": "-0.02395964109"}, {"atcoCode": "9100CHETNOL", "tiplocCode": "CHETNOL", "crsCode": "CNO", "stationName": "Chetnole Rail Station", "lat": "50.86636303049", "long": "-2.57292557649"}, {"atcoCode": "9100CHFD", "tiplocCode": "CHFD", "crsCode": "CHD", "stationName": "Chesterfield Rail Station", "lat": "53.23822014441", "long": "-1.42011582168"}, {"atcoCode": "9100CHFN", "tiplocCode": "CHFN", "crsCode": "CHF", "stationName": "Church Fenton Rail Station", "lat": "53.82660063543", "long": "-1.22758877221"}, {"atcoCode": "9100CHHL", "tiplocCode": "CHHL", "crsCode": "CHT", "stationName": "Chathill Rail Station", "lat": "55.53673284417", "long": "-1.70637513188"}, {"atcoCode": "9100CHINGFD", "tiplocCode": "CHINGFD", "crsCode": "CHI", "stationName": "Chingford Rail Station", "lat": "51.63308667195", "long": "0.00989712465"}, {"atcoCode": "9100CHIPNHM", "tiplocCode": "CHIPNHM", "crsCode": "CPM", "stationName": "Chippenham Rail Station", "lat": "51.46248796305", "long": "-2.11539388746"}, {"atcoCode": "9100CHIRK", "tiplocCode": "CHIRK", "crsCode": "CRK", "stationName": "Chirk Rail Station", "lat": "52.93308718045", "long": "-3.06564310726"}, {"atcoCode": "9100CHISWCK", "tiplocCode": "CHISWCK", "crsCode": "CHK", "stationName": "Chiswick Rail Station", "lat": "51.4811366163", "long": "-0.26783512786"}, {"atcoCode": "9100CHLFNAL", "tiplocCode": "CHLFNAL", "crsCode": "CFO", "stationName": "Chalfont & Latimer Rail Station", "lat": "51.66810843692", "long": "-0.56052631638"}, {"atcoCode": "9100CHLKWEL", "tiplocCode": "CHLKWEL", "crsCode": "CHW", "stationName": "Chalkwell Rail Station", "lat": "51.53871912412", "long": "0.67059269474"}, {"atcoCode": "9100CHLMSFD", "tiplocCode": "CHLMSFD", "crsCode": "CHM", "stationName": "Chelmsford Rail Station", "lat": "51.73637265212", "long": "0.46857219674"}, {"atcoCode": "9100CHLSFLD", "tiplocCode": "CHLSFLD", "crsCode": "CLD", "stationName": "Chelsfield Rail Station", "lat": "51.35625593713", "long": "0.10906990391"}, {"atcoCode": "9100CHLTNHM", "tiplocCode": "CHLTNHM", "crsCode": "CNM", "stationName": "Cheltenham Spa Rail Station", "lat": "51.89739728833", "long": "-2.09961995509"}, {"atcoCode": "9100CHLWTH", "tiplocCode": "CHLWTH", "crsCode": "CHL", "stationName": "Chilworth Rail Station", "lat": "51.21521316874", "long": "-0.52482405674"}, {"atcoCode": "9100CHNLY", "tiplocCode": "CHNLY", "crsCode": "CLY", "stationName": "Chinley Rail Station", "lat": "53.34028991088", "long": "-1.94394071845"}, {"atcoCode": "9100CHOLSEY", "tiplocCode": "CHOLSEY", "crsCode": "CHO", "stationName": "Cholsey Rail Station", "lat": "51.57020231828", "long": "-1.15802288568"}, {"atcoCode": "9100CHORBUK", "tiplocCode": "CHORBUK", "crsCode": "BSV", "stationName": "Buckshaw Parkway Rail Station", "lat": "53.67334099692", "long": "-2.6608298719"}, {"atcoCode": "9100CHORLEY", "tiplocCode": "CHORLEY", "crsCode": "CRL", "stationName": "Chorley Rail Station", "lat": "53.65253606987", "long": "-2.62684064673"}, {"atcoCode": "9100CHOS", "tiplocCode": "CHOS", "crsCode": "CTW", "stationName": "Church & Oswaldtwistle Rail Station", "lat": "53.75052054571", "long": "-2.39121185982"}, {"atcoCode": "9100CHPLTWN", "tiplocCode": "CHPLTWN", "crsCode": "CLN", "stationName": "Chapeltown Rail Station", "lat": "53.46233625267", "long": "-1.4662752287"}, {"atcoCode": "9100CHPWKSC", "tiplocCode": "CHPWKSC", "crsCode": "CWC", "stationName": "Chappel & Wakes Colne Rail Station", "lat": "51.92590597478", "long": "0.75850128553"}, {"atcoCode": "9100CHRISTC", "tiplocCode": "CHRISTC", "crsCode": "CHR", "stationName": "Christchurch Rail Station", "lat": "50.73821415639", "long": "-1.78454594311"}, {"atcoCode": "9100CHRNGXG", "tiplocCode": "CHRNGXG", "crsCode": "CHC", "stationName": "Charing Cross (Glasgow) Rail Station", "lat": "55.86468172851", "long": "-4.2698199535"}, {"atcoCode": "9100CHRSTSH", "tiplocCode": "CHRSTSH", "crsCode": "CHH", "stationName": "Christs Hospital Rail Station", "lat": "51.05068601259", "long": "-0.36355626166"}, {"atcoCode": "9100CHRW", "tiplocCode": "CHRW", "crsCode": "CLW", "stationName": "Chorleywood Rail Station", "lat": "51.65424861645", "long": "-0.51831998183"}, {"atcoCode": "9100CHRX", "tiplocCode": "CHRX", "crsCode": "CHX", "stationName": "London Charing Cross Rail Station", "lat": "51.50802739382", "long": "-0.12480210874"}, {"atcoCode": "9100CHSD", "tiplocCode": "CHSD", "crsCode": "CHP", "stationName": "Chipstead Rail Station", "lat": "51.30927731228", "long": "-0.16950314611"}, {"atcoCode": "9100CHSLHRS", "tiplocCode": "CHSLHRS", "crsCode": "CIT", "stationName": "Chislehurst Rail Station", "lat": "51.40555654436", "long": "0.05741805551"}, {"atcoCode": "9100CHSRD", "tiplocCode": "CHSRD", "crsCode": "CRD", "stationName": "Chester Road Rail Station", "lat": "52.53564614509", "long": "-1.83247928713"}, {"atcoCode": "9100CHSSN", "tiplocCode": "CHSSN", "crsCode": "CSN", "stationName": "Chessington North Rail Station", "lat": "51.36404106497", "long": "-0.30069905976"}, {"atcoCode": "9100CHSSS", "tiplocCode": "CHSSS", "crsCode": "CSS", "stationName": "Chessington South Rail Station", "lat": "51.35655031448", "long": "-0.30815749596"}, {"atcoCode": "9100CHST", "tiplocCode": "CHST", "crsCode": "CTR", "stationName": "Chester Rail Station", "lat": "53.19669513735", "long": "-2.87959353783"}, {"atcoCode": "9100CHSW", "tiplocCode": "CHSW", "crsCode": "CSW", "stationName": "Chestfield & Swalecliffe Rail Station", "lat": "51.36024124368", "long": "1.06693071822"}, {"atcoCode": "9100CHTLRT", "tiplocCode": "CHTLRT", "crsCode": "CTE", "stationName": "Chatelherault Rail Station", "lat": "55.76521874003", "long": "-4.00467437757"}, {"atcoCode": "9100CHTR", "tiplocCode": "CHTR", "crsCode": "CYT", "stationName": "Cherry Tree Rail Station", "lat": "53.73287041285", "long": "-2.51837882919"}, {"atcoCode": "9100CHTSEY", "tiplocCode": "CHTSEY", "crsCode": "CHY", "stationName": "Chertsey Rail Station", "lat": "51.38706885905", "long": "-0.509316546"}, {"atcoCode": "9100CILMERY", "tiplocCode": "CILMERY", "crsCode": "CIM", "stationName": "Cilmeri Rail Station", "lat": "52.15052954473", "long": "-3.45654105773"}, {"atcoCode": "9100CKHL", "tiplocCode": "CKHL", "crsCode": "CKH", "stationName": "Corkerhill Rail Station", "lat": "55.83750089223", "long": "-4.33429250121"}, {"atcoCode": "9100CLACTON", "tiplocCode": "CLACTON", "crsCode": "CLT", "stationName": "Clacton-on-Sea Rail Station", "lat": "51.79400281138", "long": "1.15409182075"}, {"atcoCode": "9100CLANDON", "tiplocCode": "CLANDON", "crsCode": "CLA", "stationName": "Clandon Rail Station", "lat": "51.26400525735", "long": "-0.5027660291"}, {"atcoCode": "9100CLAPTON", "tiplocCode": "CLAPTON", "crsCode": "CPT", "stationName": "Clapton Rail Station", "lat": "51.5616439327", "long": "-0.05702457493"}, {"atcoCode": "9100CLARBRD", "tiplocCode": "CLARBRD", "crsCode": "CLR", "stationName": "Clarbeston Road Rail Station", "lat": "51.85166518143", "long": "-4.88354773429"}, {"atcoCode": "9100CLAVRDN", "tiplocCode": "CLAVRDN", "crsCode": "CLV", "stationName": "Claverdon Rail Station", "lat": "52.27709043303", "long": "-1.69655982438"}, {"atcoCode": "9100CLCHHYT", "tiplocCode": "CLCHHYT", "crsCode": "HYH", "stationName": "Hythe (Essex) Rail Station", "lat": "51.8856395256", "long": "0.9275276909"}, {"atcoCode": "9100CLCHRTN", "tiplocCode": "CLCHRTN", "crsCode": "CET", "stationName": "Colchester Town Rail Station", "lat": "51.88645589782", "long": "0.90476263648"}, {"atcoCode": "9100CLCHSTR", "tiplocCode": "CLCHSTR", "crsCode": "COL", "stationName": "Colchester Rail Station", "lat": "51.90071379288", "long": "0.89259822672"}, {"atcoCode": "9100CLDNNRB", "tiplocCode": "CLDNNRB", "crsCode": "CIR", "stationName": "Caledonian Road & Barnsbury Rail Station", "lat": "51.54304079545", "long": "-0.116729169"}, {"atcoCode": "9100CLDRCRX", "tiplocCode": "CLDRCRX", "crsCode": "CAC", "stationName": "Caldercruix Rail Station", "lat": "55.88794297805", "long": "-3.88771108683"}, {"atcoCode": "9100CLELAND", "tiplocCode": "CLELAND", "crsCode": "CEA", "stationName": "Cleland Rail Station", "lat": "55.80464762722", "long": "-3.91024399645"}, {"atcoCode": "9100CLFDOWN", "tiplocCode": "CLFDOWN", "crsCode": "CFN", "stationName": "Clifton Down Rail Station", "lat": "51.46454457812", "long": "-2.6117408388"}, {"atcoCode": "9100CLHM", "tiplocCode": "CLHM", "crsCode": "CLM", "stationName": "Collingham Rail Station", "lat": "53.14408617704", "long": "-0.75039384491"}, {"atcoCode": "9100CLITHRO", "tiplocCode": "CLITHRO", "crsCode": "CLH", "stationName": "Clitheroe Rail Station", "lat": "53.87346611137", "long": "-2.39433631515"}, {"atcoCode": "9100CLMN", "tiplocCode": "CLMN", "crsCode": "CIL", "stationName": "Chilham Rail Station", "lat": "51.24461104667", "long": "0.97589572012"}, {"atcoCode": "9100CLOCKHS", "tiplocCode": "CLOCKHS", "crsCode": "CLK", "stationName": "Clock House Rail Station", "lat": "51.40858641363", "long": "-0.04065698193"}, {"atcoCode": "9100CLPHHS", "tiplocCode": "CLPHHS", "crsCode": "CLP", "stationName": "Clapham High Street Rail Station", "lat": "51.46548090559", "long": "-0.13252160579"}, {"atcoCode": "9100CLPHMJ1", "tiplocCode": "CLPHMJ1", "crsCode": "CLJ", "stationName": "Clapham Junction Rail Station", "lat": "51.46418690022", "long": "-0.17022139909"}, {"atcoCode": "9100CLPHMJ2", "tiplocCode": "CLPHMJ2", "crsCode": "CLJ", "stationName": "Clapham Junction Rail Station", "lat": "51.4641880229", "long": "-0.17029333674"}, {"atcoCode": "9100CLPHMJC", "tiplocCode": "CLPHMJC", "crsCode": "CLJ", "stationName": "Clapham Junction Rail Station", "lat": "51.46418779837", "long": "-0.1702789492"}, {"atcoCode": "9100CLPHMJM", "tiplocCode": "CLPHMJM", "crsCode": "CLJ", "stationName": "Clapham Junction Rail Station", "lat": "51.46418757383", "long": "-0.17026456167"}, {"atcoCode": "9100CLPHMJW", "tiplocCode": "CLPHMJW", "crsCode": "CLJ", "stationName": "Clapham Junction Rail Station", "lat": "51.4641873493", "long": "-0.17025017415"}, {"atcoCode": "9100CLPM", "tiplocCode": "CLPM", "crsCode": "CPY", "stationName": "Clapham (N Yorks) Rail Station", "lat": "54.10538580801", "long": "-2.41037593925"}, {"atcoCode": "9100CLRKSTN", "tiplocCode": "CLRKSTN", "crsCode": "CKS", "stationName": "Clarkston Rail Station", "lat": "55.78934838179", "long": "-4.27564376395"}, {"atcoCode": "9100CLST", "tiplocCode": "CLST", "crsCode": "CLS", "stationName": "Chester-le-Street Rail Station", "lat": "54.85459440939", "long": "-1.57801525009"}, {"atcoCode": "9100CLTHRPS", "tiplocCode": "CLTHRPS", "crsCode": "CLE", "stationName": "Cleethorpes Rail Station", "lat": "53.56190613177", "long": "-0.0292208451"}, {"atcoCode": "9100CLTN", "tiplocCode": "CLTN", "crsCode": "CLI", "stationName": "Clifton (Manchester) Rail Station", "lat": "53.52248956227", "long": "-2.3147463351"}, {"atcoCode": "9100CLWALL", "tiplocCode": "CLWALL", "crsCode": "CWL", "stationName": "Colwall Rail Station", "lat": "52.07986839502", "long": "-2.35695005388"}, {"atcoCode": "9100CLYBANK", "tiplocCode": "CLYBANK", "crsCode": "CYK", "stationName": "Clydebank Rail Station", "lat": "55.90069113461", "long": "-4.4044138717"}, {"atcoCode": "9100CLYGATE", "tiplocCode": "CLYGATE", "crsCode": "CLG", "stationName": "Claygate Rail Station", "lat": "51.36121401224", "long": "-0.34824771704"}, {"atcoCode": "9100CLYNDRW", "tiplocCode": "CLYNDRW", "crsCode": "CUW", "stationName": "Clunderwen Rail Station", "lat": "51.84053980452", "long": "-4.73184180642"}, {"atcoCode": "9100CMBH", "tiplocCode": "CMBH", "crsCode": "CMH", "stationName": "Cwmbach Rail Station", "lat": "51.70192727595", "long": "-3.41372308238"}, {"atcoCode": "9100CMBLEY", "tiplocCode": "CMBLEY", "crsCode": "CAM", "stationName": "Camberley Rail Station", "lat": "51.33632761671", "long": "-0.74427163142"}, {"atcoCode": "9100CMBRNLD", "tiplocCode": "CMBRNLD", "crsCode": "CUB", "stationName": "Cumbernauld Rail Station", "lat": "55.9420258408", "long": "-3.98033433173"}, {"atcoCode": "9100CMBSLNG", "tiplocCode": "CMBSLNG", "crsCode": "CBL", "stationName": "Cambuslang Rail Station", "lat": "55.81960606981", "long": "-4.17300841707"}, {"atcoCode": "9100CMDNRD", "tiplocCode": "CMDNRD", "crsCode": "CMD", "stationName": "Camden Road Rail Station", "lat": "51.54179078703", "long": "-0.138700821"}, {"atcoCode": "9100CMER", "tiplocCode": "CMER", "crsCode": "CMR", "stationName": "Cromer Rail Station", "lat": "52.93008448173", "long": "1.29282454525"}, {"atcoCode": "9100CMTHN", "tiplocCode": "CMTHN", "crsCode": "CMN", "stationName": "Carmarthen Rail Station", "lat": "51.85335256797", "long": "-4.3059608974"}, {"atcoCode": "9100CNCK", "tiplocCode": "CNCK", "crsCode": "CAO", "stationName": "Cannock Rail Station", "lat": "52.68616082262", "long": "-2.02214725185"}, {"atcoCode": "9100CNDAW", "tiplocCode": "CNDAW", "crsCode": "ZCW", "stationName": "Canada Water Rail Station", "lat": "51.49799008862", "long": "-0.04971975403"}, {"atcoCode": "9100CNNB", "tiplocCode": "CNNB", "crsCode": "CNN", "stationName": "Canonbury Rail Station", "lat": "51.5487322475", "long": "-0.09219084817"}, {"atcoCode": "9100CNST", "tiplocCode": "CNST", "crsCode": "CAN", "stationName": "Carnoustie Rail Station", "lat": "56.50056336526", "long": "-2.70660036649"}, {"atcoCode": "9100CNTBE", "tiplocCode": "CNTBE", "crsCode": "CBE", "stationName": "Canterbury East Rail Station", "lat": "51.27426781948", "long": "1.0759685662"}, {"atcoCode": "9100CNTBW", "tiplocCode": "CNTBW", "crsCode": "CBW", "stationName": "Canterbury West Rail Station", "lat": "51.28426933502", "long": "1.07530326787"}, {"atcoCode": "9100CNTLEY", "tiplocCode": "CNTLEY", "crsCode": "CNY", "stationName": "Cantley Rail Station", "lat": "52.57874812482", "long": "1.51341232631"}, {"atcoCode": "9100CNTY", "tiplocCode": "CNTY", "crsCode": "CAY", "stationName": "Carntyne Rail Station", "lat": "55.85487268466", "long": "-4.17857220107"}, {"atcoCode": "9100COATBDC", "tiplocCode": "COATBDC", "crsCode": "CBC", "stationName": "Coatbridge Central Rail Station", "lat": "55.8625055056", "long": "-4.03189676731"}, {"atcoCode": "9100COATBDS", "tiplocCode": "COATBDS", "crsCode": "CBS", "stationName": "Coatbridge Sunnyside Rail Station", "lat": "55.86683387583", "long": "-4.02828709977"}, {"atcoCode": "9100COATDYK", "tiplocCode": "COATDYK", "crsCode": "COA", "stationName": "Coatdyke Rail Station", "lat": "55.86434001989", "long": "-4.00498438126"}, {"atcoCode": "9100CODNBCH", "tiplocCode": "CODNBCH", "crsCode": "COB", "stationName": "Cooden Beach Rail Station", "lat": "50.83337248206", "long": "0.42685884937"}, {"atcoCode": "9100CODSALL", "tiplocCode": "CODSALL", "crsCode": "CSL", "stationName": "Codsall Rail Station", "lat": "52.62728804441", "long": "-2.2017628153"}, {"atcoCode": "9100COGAN", "tiplocCode": "COGAN", "crsCode": "CGN", "stationName": "Cogan Rail Station", "lat": "51.4459923008", "long": "-3.18908983007"}, {"atcoCode": "9100COKSBDG", "tiplocCode": "COKSBDG", "crsCode": "CBR", "stationName": "Cooksbridge Rail Station", "lat": "50.9037564866", "long": "-0.00920266797"}, {"atcoCode": "9100COLESHL", "tiplocCode": "COLESHL", "crsCode": "CEH", "stationName": "Coleshill Parkway Rail Station", "lat": "52.51652643137", "long": "-1.70817721591"}, {"atcoCode": "9100COLNE", "tiplocCode": "COLNE", "crsCode": "CNE", "stationName": "Colne Rail Station", "lat": "53.85474250517", "long": "-2.18185905977"}, {"atcoCode": "9100COLSDNS", "tiplocCode": "COLSDNS", "crsCode": "CDS", "stationName": "Coulsdon South Rail Station", "lat": "51.31583814927", "long": "-0.13788721377"}, {"atcoCode": "9100COLSTWN", "tiplocCode": "COLSTWN", "crsCode": "CDN", "stationName": "Coulsdon Town Rail Station", "lat": "51.32204264292", "long": "-0.13446415087"}, {"atcoCode": "9100COMBE", "tiplocCode": "COMBE", "crsCode": "CME", "stationName": "Combe (Oxon) Rail Station", "lat": "51.83259344542", "long": "-1.39407318984"}, {"atcoCode": "9100COMONDL", "tiplocCode": "COMONDL", "crsCode": "COM", "stationName": "Commondale Rail Station", "lat": "54.48127409837", "long": "-0.97514791514"}, {"atcoCode": "9100CONBRGH", "tiplocCode": "CONBRGH", "crsCode": "CNS", "stationName": "Conisbrough Rail Station", "lat": "53.48930903996", "long": "-1.23433137958"}, {"atcoCode": "9100CONGLTN", "tiplocCode": "CONGLTN", "crsCode": "CNG", "stationName": "Congleton Rail Station", "lat": "53.15785428203", "long": "-2.1925799867"}, {"atcoCode": "9100CONNELF", "tiplocCode": "CONNELF", "crsCode": "CON", "stationName": "Connel Ferry Rail Station", "lat": "56.45235269108", "long": "-5.38544091676"}, {"atcoCode": "9100CONONBR", "tiplocCode": "CONONBR", "crsCode": "CBD", "stationName": "Conon Bridge Rail Station", "lat": "57.56175145282", "long": "-4.44040531668"}, {"atcoCode": "9100CONONLY", "tiplocCode": "CONONLY", "crsCode": "CEY", "stationName": "Cononley Rail Station", "lat": "53.91757011571", "long": "-2.0120676459"}, {"atcoCode": "9100CONWY", "tiplocCode": "CONWY", "crsCode": "CNW", "stationName": "Conwy Rail Station", "lat": "53.28010171044", "long": "-3.83052420242"}, {"atcoCode": "9100COOKHAM", "tiplocCode": "COOKHAM", "crsCode": "COO", "stationName": "Cookham Rail Station", "lat": "51.55746272201", "long": "-0.72207898509"}, {"atcoCode": "9100COOMBE", "tiplocCode": "COOMBE", "crsCode": "COE", "stationName": "Coombe Junction Halt (Rail Station)", "lat": "50.44591967381", "long": "-4.48185123192"}, {"atcoCode": "9100COPLSTN", "tiplocCode": "COPLSTN", "crsCode": "COP", "stationName": "Copplestone Rail Station", "lat": "50.81446653834", "long": "-3.75157170718"}, {"atcoCode": "9100CORBY", "tiplocCode": "CORBY", "crsCode": "COR", "stationName": "Corby Rail Station", "lat": "52.48885139085", "long": "-0.68833531673"}, {"atcoCode": "9100CORPACH", "tiplocCode": "CORPACH", "crsCode": "CPA", "stationName": "Corpach Rail Station", "lat": "56.84282689887", "long": "-5.12195649279"}, {"atcoCode": "9100CORROUR", "tiplocCode": "CORROUR", "crsCode": "CRR", "stationName": "Corrour Rail Station", "lat": "56.76021359515", "long": "-4.69060019526"}, {"atcoCode": "9100CORYTON", "tiplocCode": "CORYTON", "crsCode": "COY", "stationName": "Coryton Rail Station", "lat": "51.52043601653", "long": "-3.23181788193"}, {"atcoCode": "9100COSELEY", "tiplocCode": "COSELEY", "crsCode": "CSY", "stationName": "Coseley Rail Station", "lat": "52.54508249646", "long": "-2.08577748289"}, {"atcoCode": "9100COSFORD", "tiplocCode": "COSFORD", "crsCode": "COS", "stationName": "Cosford Rail Station", "lat": "52.64483387472", "long": "-2.30027466756"}, {"atcoCode": "9100COSHAM", "tiplocCode": "COSHAM", "crsCode": "CSA", "stationName": "Cosham Rail Station", "lat": "50.84192411568", "long": "-1.06732868373"}, {"atcoCode": "9100COTNGLY", "tiplocCode": "COTNGLY", "crsCode": "COT", "stationName": "Cottingley Rail Station", "lat": "53.76781663135", "long": "-1.58770804242"}, {"atcoCode": "9100COVAREN", "tiplocCode": "COVAREN", "crsCode": "CAA", "stationName": "Coventry Arena Rail Station", "lat": "52.44773294663", "long": "-1.49412454597"}, {"atcoCode": "9100COVNTRY", "tiplocCode": "COVNTRY", "crsCode": "COV", "stationName": "Coventry Rail Station", "lat": "52.40081364453", "long": "-1.51345961399"}, {"atcoCode": "9100COWDEN", "tiplocCode": "COWDEN", "crsCode": "CWN", "stationName": "Cowden Rail Station", "lat": "51.15563724209", "long": "0.11003281206"}, {"atcoCode": "9100CPNHRST", "tiplocCode": "CPNHRST", "crsCode": "CPU", "stationName": "Capenhurst Rail Station", "lat": "53.26017358053", "long": "-2.94228478229"}, {"atcoCode": "9100CRADLYH", "tiplocCode": "CRADLYH", "crsCode": "CRA", "stationName": "Cradley Heath Rail Station", "lat": "52.46965356315", "long": "-2.0904881333"}, {"atcoCode": "9100CRAVENA", "tiplocCode": "CRAVENA", "crsCode": "CRV", "stationName": "Craven Arms Rail Station", "lat": "52.44253876059", "long": "-2.83742187138"},